SIGLA_PROVINCIA,CODICE_ISTAT,DENOMINAZIONE_ITA_ALTRA,DENOMINAZIONE_ITA,DENOMINAZIONE_ALTRA,FLAG_CAPOLUOGO,CODICE_BELFIORE,LAT,LON,SUPERFICIE_KMQ,CODICE_SOVRACOMUNALE
TO,001001,AGLIÈ,AGLIÈ,,NO,A074,45.3634368,7.7685999,13.1463,201
TO,001002,AIRASCA,AIRASCA,,NO,A109,44.9168832,7.4844311,15.7393,201
TO,001003,ALA DI STURA,ALA DI STURA,,NO,A117,45.3151133,7.3043438,46.3316,201
TO,001004,ALBIANO D'IVREA,ALBIANO D'IVREA,,NO,A157,45.4338982,7.9491448,11.7397,201
TO,001006,ALMESE,ALMESE,,NO,A218,45.1176634,7.3951819,17.8741,201
TO,001007,ALPETTE,ALPETTE,,NO,A221,45.4099867,7.5785972,5.6311,201
TO,001008,ALPIGNANO,ALPIGNANO,,NO,A222,45.0944696,7.5242673,11.9193,201
TO,001009,ANDEZENO,ANDEZENO,,NO,A275,45.0358599,7.8699487,7.4859,201
TO,001010,ANDRATE,ANDRATE,,NO,A282,45.5283810,7.8738392,9.3090,201
TO,001011,ANGROGNA,ANGROGNA,,NO,A295,44.8434461,7.2242923,38.8781,201
TO,001012,ARIGNANO,ARIGNANO,,NO,A405,45.0440280,7.9024464,8.1666,201
TO,001013,AVIGLIANA,AVIGLIANA,,NO,A518,45.0793571,7.3963234,23.2173,201
TO,001014,AZEGLIO,AZEGLIO,,NO,A525,45.4248665,7.9947706,9.9528,201
TO,001015,BAIRO,BAIRO,,NO,A584,45.3862534,7.7569180,7.0859,201
TO,001016,BALANGERO,BALANGERO,,NO,A587,45.2700324,7.5193095,13.0065,201
TO,001017,BALDISSERO CANAVESE,BALDISSERO CANAVESE,,NO,A590,45.4084080,7.7444444,4.5064,201
TO,001018,BALDISSERO TORINESE,BALDISSERO TORINESE,,NO,A591,45.0684227,7.8178077,15.4046,201
TO,001019,BALME,BALME,,NO,A599,45.3022970,7.2183140,62.7105,201
TO,001020,BANCHETTE,BANCHETTE,,NO,A607,45.4608553,7.8565637,2.0289,201
TO,001021,BARBANIA,BARBANIA,,NO,A625,45.2905029,7.6305109,12.8027,201
TO,001022,BARDONECCHIA,BARDONECCHIA,,NO,A651,45.0781688,6.7038239,132.2030,201
TO,001023,BARONE CANAVESE,BARONE CANAVESE,,NO,A673,45.3277288,7.8705562,3.9864,201
TO,001024,BEINASCO,BEINASCO,,NO,A734,45.0220777,7.5791581,6.7366,201
TO,001025,BIBIANA,BIBIANA,,NO,A853,44.7975756,7.2897861,18.5987,201
TO,001026,BOBBIO PELLICE,BOBBIO PELLICE,,NO,A910,44.8077018,7.1179046,94.0820,201
TO,001027,BOLLENGO,BOLLENGO,,NO,A941,45.4733626,7.9453487,14.2237,201
TO,001028,BORGARO TORINESE,BORGARO TORINESE,,NO,A990,45.1519831,7.6578944,11.1093,201
TO,001029,BORGIALLO,BORGIALLO,,NO,B003,45.4168178,7.6677336,6.9647,201
TO,001030,BORGOFRANCO D'IVREA,BORGOFRANCO D'IVREA,,NO,B015,45.5130128,7.8585220,13.4190,201
TO,001031,BORGOMASINO,BORGOMASINO,,NO,B021,45.3615550,7.9887996,12.3713,201
TO,001032,BORGONE SUSA,BORGONE SUSA,,NO,B024,45.1231397,7.2412140,4.9616,201
TO,001033,BOSCONERO,BOSCONERO,,NO,B075,45.2685663,7.7650698,10.9191,201
TO,001034,BRANDIZZO,BRANDIZZO,,NO,B121,45.1776535,7.8414756,6.3900,201
TO,001035,BRICHERASIO,BRICHERASIO,,NO,B171,44.8255775,7.3028877,22.7583,201
TO,001036,BROSSO,BROSSO,,NO,B205,45.4927657,7.8033343,11.1350,201
TO,001037,BROZOLO,BROZOLO,,NO,B209,45.1174194,8.0712784,8.9471,201
TO,001038,BRUINO,BRUINO,,NO,B216,45.0202313,7.4676911,5.5702,201
TO,001039,BRUSASCO,BRUSASCO,,NO,B225,45.1559558,8.0600942,14.3591,201
TO,001040,BRUZOLO,BRUZOLO,,NO,B232,45.1431255,7.1939769,12.5597,201
TO,001041,BURIASCO,BURIASCO,,NO,B278,44.8733550,7.4119230,14.6868,201
TO,001042,BUROLO,BUROLO,,NO,B279,45.4841252,7.9320566,5.4760,201
TO,001043,BUSANO,BUSANO,,NO,B284,45.3288398,7.6557436,5.0591,201
TO,001044,BUSSOLENO,BUSSOLENO,,NO,B297,45.1372801,7.1493187,37.0661,201
TO,001045,BUTTIGLIERA ALTA,BUTTIGLIERA ALTA,,NO,B305,45.0670146,7.4367807,8.0973,201
TO,001046,CAFASSE,CAFASSE,,NO,B350,45.2447136,7.5181235,10.2313,201
TO,001047,CALUSO,CALUSO,,NO,B435,45.3078650,7.8915053,39.4924,201
TO,001048,CAMBIANO,CAMBIANO,,NO,B462,44.9734576,7.7793248,14.1313,201
TO,001049,CAMPIGLIONE FENILE,CAMPIGLIONE FENILE,,NO,B512,44.8021199,7.3250382,11.0864,201
TO,001050,CANDIA CANAVESE,CANDIA CANAVESE,,NO,B588,45.3281713,7.8866124,9.1318,201
TO,001051,CANDIOLO,CANDIOLO,,NO,B592,44.9602633,7.6012111,11.8499,201
TO,001052,CANISCHIO,CANISCHIO,,NO,B605,45.3743498,7.5952182,11.9504,201
TO,001053,CANTALUPA,CANTALUPA,,NO,B628,44.9403073,7.3326039,11.1953,201
TO,001054,CANTOIRA,CANTOIRA,,NO,B637,45.3432391,7.3816797,23.0319,201
TO,001055,CAPRIE,CAPRIE,,NO,B705,45.1178654,7.3325065,16.4077,201
TO,001056,CARAVINO,CARAVINO,,NO,B733,45.3986096,7.9602135,11.5370,201
TO,001057,CAREMA,CAREMA,,NO,B762,45.5844545,7.8123043,10.2591,201
TO,001058,CARIGNANO,CARIGNANO,,NO,B777,44.9066637,7.6753431,50.6791,201
TO,001059,CARMAGNOLA,CARMAGNOLA,,NO,B791,44.8465448,7.7181575,95.7163,201
TO,001060,CASALBORGONE,CASALBORGONE,,NO,B867,45.1299630,7.9404405,20.1238,201
TO,001061,CASCINETTE D'IVREA,CASCINETTE D'IVREA,,NO,B953,45.4784597,7.9046983,2.1726,201
TO,001062,CASELETTE,CASELETTE,,NO,B955,45.1058811,7.4832072,14.3141,201
TO,001063,CASELLE TORINESE,CASELLE TORINESE,,NO,B960,45.1771666,7.6481863,23.5512,201
TO,001064,CASTAGNETO PO,CASTAGNETO PO,,NO,C045,45.1606091,7.8869884,11.5245,201
TO,001065,CASTAGNOLE PIEMONTE,CASTAGNOLE PIEMONTE,,NO,C048,44.8986165,7.5665563,17.2795,201
TO,001066,CASTELLAMONTE,CASTELLAMONTE,,NO,C133,45.3833395,7.7098652,38.7063,201
TO,001067,CASTELNUOVO NIGRA,CASTELNUOVO NIGRA,,NO,C241,45.4373279,7.6951142,28.3756,201
TO,001068,CASTIGLIONE TORINESE,CASTIGLIONE TORINESE,,NO,C307,45.1233094,7.8160937,14.1346,201
TO,001069,CAVAGNOLO,CAVAGNOLO,,NO,C369,45.1520751,8.0513102,12.3286,201
TO,001070,CAVOUR,CAVOUR,,NO,C404,44.7840265,7.3752321,48.9599,201
TO,001071,CERCENASCO,CERCENASCO,,NO,C487,44.8612571,7.5012581,13.1596,201
TO,001072,CERES,CERES,,NO,C497,45.3130821,7.3893433,28.0516,201
TO,001073,CERESOLE REALE,CERESOLE REALE,,NO,C505,45.4326228,7.2325410,99.8164,201
TO,001074,CESANA TORINESE,CESANA TORINESE,,NO,C564,44.9524088,6.7942278,121.7006,201
TO,001075,CHIALAMBERTO,CHIALAMBERTO,,NO,C604,45.3628633,7.3457007,35.4479,201
TO,001076,CHIANOCCO,CHIANOCCO,,NO,C610,45.1485865,7.1693934,18.6132,201
TO,001077,CHIAVERANO,CHIAVERANO,,NO,C624,45.4994028,7.9031274,12.0224,201
TO,001078,CHIERI,CHIERI,,NO,C627,45.0131517,7.8210716,54.1967,201
TO,001079,CHIESANUOVA,CHIESANUOVA,,NO,C629,45.4178128,7.6560592,4.1187,201
TO,001080,CHIOMONTE,CHIOMONTE,,NO,C639,45.1193861,6.9833861,26.7550,201
TO,001081,CHIUSA DI SAN MICHELE,CHIUSA DI SAN MICHELE,,NO,C655,45.1015471,7.3264449,5.9167,201
TO,001082,CHIVASSO,CHIVASSO,,NO,C665,45.1885564,7.8871395,51.2027,201
TO,001083,CICONIO,CICONIO,,NO,C679,45.3303253,7.7598721,3.1638,201
TO,001084,CINTANO,CINTANO,,NO,C711,45.4280550,7.6866210,4.9344,201
TO,001085,CINZANO,CINZANO,,NO,C715,45.0938984,7.9211215,6.1965,201
TO,001086,CIRIÈ,CIRIÈ,,NO,C722,45.2320252,7.6037821,17.7329,201
TO,001087,CLAVIERE,CLAVIERE,,NO,C793,44.9386158,6.7493064,2.6871,201
TO,001088,COASSOLO TORINESE,COASSOLO TORINESE,,NO,C801,45.3007164,7.4613293,27.8788,201
TO,001089,COAZZE,COAZZE,,NO,C803,45.0514173,7.2946436,56.5724,201
TO,001090,COLLEGNO,COLLEGNO,,NO,C860,45.0774011,7.5691295,18.1075,201
TO,001091,COLLERETTO CASTELNUOVO,COLLERETTO CASTELNUOVO,,NO,C867,45.4214111,7.6789816,6.3321,201
TO,001092,COLLERETTO GIACOSA,COLLERETTO GIACOSA,,NO,C868,45.4328929,7.7999643,4.5895,201
TO,001093,CONDOVE,CONDOVE,,NO,C955,45.1171436,7.3107299,71.1129,201
TO,001094,CORIO,CORIO,,NO,D008,45.3127462,7.5325615,41.4917,201
TO,001095,COSSANO CANAVESE,COSSANO CANAVESE,,NO,D092,45.3883351,7.9933732,3.2387,201
TO,001096,CUCEGLIO,CUCEGLIO,,NO,D197,45.3589326,7.8148439,6.8709,201
TO,001097,CUMIANA,CUMIANA,,NO,D202,44.9827939,7.3743768,60.7335,201
TO,001098,CUORGNÈ,CUORGNÈ,,NO,D208,45.3912313,7.6489149,19.3083,201
TO,001099,DRUENTO,DRUENTO,,NO,D373,45.1347332,7.5762042,27.5394,201
TO,001100,EXILLES,EXILLES,,NO,D433,45.0974909,6.9296242,46.5473,201
TO,001101,FAVRIA,FAVRIA,,NO,D520,45.3328504,7.6880143,14.8499,201
TO,001102,FELETTO,FELETTO,,NO,D524,45.3054940,7.7471079,7.8931,201
TO,001103,FENESTRELLE,FENESTRELLE,,NO,D532,45.0342952,7.0518867,49.4091,201
TO,001104,FIANO,FIANO,,NO,D562,45.2181230,7.5197835,12.0396,201
TO,001105,FIORANO CANAVESE,FIORANO CANAVESE,,NO,D608,45.4675752,7.8289773,4.3457,201
TO,001106,FOGLIZZO,FOGLIZZO,,NO,D646,45.2720198,7.8231787,15.6429,201
TO,001107,FORNO CANAVESE,FORNO CANAVESE,,NO,D725,45.3468407,7.5867804,16.5002,201
TO,001108,FRASSINETTO,FRASSINETTO,,NO,D781,45.4360373,7.6056789,24.8186,201
TO,001109,FRONT,FRONT,,NO,D805,45.2795532,7.6655965,10.9482,201
TO,001110,FROSSASCO,FROSSASCO,,NO,D812,44.9336199,7.3507705,20.1488,201
TO,001111,GARZIGLIANA,GARZIGLIANA,,NO,D931,44.8367717,7.3747313,7.4018,201
TO,001112,GASSINO TORINESE,GASSINO TORINESE,,NO,D933,45.1274531,7.8248966,20.5108,201
TO,001113,GERMAGNANO,GERMAGNANO,,NO,D983,45.2621833,7.4668644,14.4442,201
TO,001114,GIAGLIONE,GIAGLIONE,,NO,E009,45.1396886,7.0141385,33.3830,201
TO,001115,GIAVENO,GIAVENO,,NO,E020,45.0447522,7.3530865,71.7379,201
TO,001116,GIVOLETTO,GIVOLETTO,,NO,E067,45.1587801,7.4967729,12.8199,201
TO,001117,GRAVERE,GRAVERE,,NO,E154,45.1239188,7.0210728,18.9872,201
TO,001118,GROSCAVALLO,GROSCAVALLO,,NO,E199,45.3689574,7.2822951,92.0935,201
TO,001119,GROSSO,GROSSO,,NO,E203,45.2563694,7.5566335,4.3296,201
TO,001120,GRUGLIASCO,GRUGLIASCO,,NO,E216,45.0621103,7.5778006,13.1375,201
TO,001121,INGRIA,INGRIA,,NO,E301,45.4662964,7.5708626,14.7505,201
TO,001122,INVERSO PINASCA,INVERSO PINASCA,,NO,E311,44.9472274,7.2159640,8.0293,201
TO,001123,ISOLABELLA,ISOLABELLA,,NO,E345,44.9066417,7.9092678,4.7718,201
TO,001124,ISSIGLIO,ISSIGLIO,,NO,E368,45.4468144,7.7541627,5.5042,201
TO,001125,IVREA,IVREA,,NO,E379,45.4661941,7.8759668,30.1076,201
TO,001126,LA CASSA,LA CASSA,,NO,E394,45.1818247,7.5191300,12.0354,201
TO,001127,LA LOGGIA,LA LOGGIA,,NO,E423,44.9566759,7.6677072,12.7929,201
TO,001128,LANZO TORINESE,LANZO TORINESE,,NO,E445,45.2723224,7.4766155,10.2876,201
TO,001129,LAURIANO,LAURIANO,,NO,E484,45.1584557,7.9916695,14.2901,201
TO,001130,LEINI,LEINI,,NO,E518,45.1839381,7.7151076,31.9192,201
TO,001131,LEMIE,LEMIE,,NO,E520,45.2285585,7.2928817,45.6752,201
TO,001132,LESSOLO,LESSOLO,,NO,E551,45.4761616,7.8142197,7.9365,201
TO,001133,LEVONE,LEVONE,,NO,E566,45.3181072,7.6059006,5.3912,201
TO,001134,LOCANA,LOCANA,,NO,E635,45.4169972,7.4612623,132.5175,201
TO,001135,LOMBARDORE,LOMBARDORE,,NO,E660,45.2357094,7.7362669,12.7157,201
TO,001136,LOMBRIASCO,LOMBRIASCO,,NO,E661,44.8415984,7.6357788,7.2095,201
TO,001137,LORANZÈ,LORANZÈ,,NO,E683,45.4422362,7.8108710,4.1914,201
TO,001139,LUSERNA SAN GIOVANNI,LUSERNA SAN GIOVANNI,,NO,E758,44.8143175,7.2457908,17.7414,201
TO,001140,LUSERNETTA,LUSERNETTA,,NO,E759,44.8023618,7.2502360,7.0398,201
TO,001141,LUSIGLIÈ,LUSIGLIÈ,,NO,E763,45.3185684,7.7664666,5.2585,201
TO,001142,MACELLO,MACELLO,,NO,E782,44.8511751,7.4007927,14.1404,201
TO,001143,MAGLIONE,MAGLIONE,,NO,E817,45.3477069,8.0117445,6.3132,201
TO,001144,MARENTINO,MARENTINO,,NO,E941,45.0580041,7.8733297,11.2599,201
TO,001145,MASSELLO,MASSELLO,,NO,F041,44.9585595,7.0563128,38.2587,201
TO,001146,MATHI,MATHI,,NO,F053,45.2566436,7.5413209,7.0703,201
TO,001147,MATTIE,MATTIE,,NO,F058,45.1187055,7.1121519,28.6942,201
TO,001148,MAZZÈ,MAZZÈ,,NO,F067,45.2985390,7.9370016,27.3281,201
TO,001149,MEANA DI SUSA,MEANA DI SUSA,,NO,F074,45.1207336,7.0681407,16.5438,201
TO,001150,MERCENASCO,MERCENASCO,,NO,F140,45.3569822,7.8825668,12.6384,201
TO,001152,MEZZENILE,MEZZENILE,,NO,F182,45.2924068,7.3950199,29.0872,201
TO,001153,MOMBELLO DI TORINO,MOMBELLO DI TORINO,,NO,F315,45.0463992,7.9195483,4.0825,201
TO,001154,MOMPANTERO,MOMPANTERO,,NO,F318,45.1399072,7.0579733,30.3331,201
TO,001155,MONASTERO DI LANZO,MONASTERO DI LANZO,,NO,F327,45.3014274,7.4391322,17.6554,201
TO,001156,MONCALIERI,MONCALIERI,,NO,F335,45.0009240,7.6852479,47.5444,201
TO,001157,MONCENISIO,MONCENISIO,,NO,D553,45.2052902,6.9835609,4.5006,201
TO,001158,MONTALDO TORINESE,MONTALDO TORINESE,,NO,F407,45.0663638,7.8508936,4.6568,201
TO,001159,MONTALENGHE,MONTALENGHE,,NO,F411,45.3377263,7.8398563,6.4681,201
TO,001160,MONTALTO DORA,MONTALTO DORA,,NO,F420,45.4936297,7.8637946,7.3567,201
TO,001161,MONTANARO,MONTANARO,,NO,F422,45.2328961,7.8528256,20.9036,201
TO,001162,MONTEU DA PO,MONTEU DA PO,,NO,F651,45.1505427,8.0147845,7.3897,201
TO,001163,MORIONDO TORINESE,MORIONDO TORINESE,,NO,F733,45.0390614,7.9440556,6.4898,201
TO,001164,NICHELINO,NICHELINO,,NO,F889,44.9951889,7.6473727,20.6222,201
TO,001165,NOASCA,NOASCA,,NO,F906,45.4530560,7.3135435,78.0484,201
TO,001166,NOLE,NOLE,,NO,F925,45.2452388,7.5701212,11.3530,201
TO,001167,NOMAGLIO,NOMAGLIO,,NO,F927,45.5351887,7.8597152,3.0743,201
TO,001168,NONE,NONE,,NO,F931,44.9323104,7.5412396,24.6422,201
TO,001169,NOVALESA,NOVALESA,,NO,F948,45.1876373,7.0146657,28.5543,201
TO,001170,OGLIANICO,OGLIANICO,,NO,G010,45.3425704,7.6927438,6.3030,201
TO,001171,ORBASSANO,ORBASSANO,,NO,G087,45.0070316,7.5369568,22.2081,201
TO,001172,ORIO CANAVESE,ORIO CANAVESE,,NO,G109,45.3284928,7.8602996,7.1541,201
TO,001173,OSASCO,OSASCO,,NO,G151,44.8494709,7.3431663,5.4886,201
TO,001174,OSASIO,OSASIO,,NO,G152,44.8694593,7.6075282,4.5771,201
TO,001175,OULX,OULX,,NO,G196,45.0312711,6.8322188,99.7859,201
TO,001176,OZEGNA,OZEGNA,,NO,G202,45.3490184,7.7431342,5.4058,201
TO,001177,PALAZZO CANAVESE,PALAZZO CANAVESE,,NO,G262,45.4574832,7.9780494,5.0819,201
TO,001178,PANCALIERI,PANCALIERI,,NO,G303,44.8304699,7.5881618,15.8885,201
TO,001179,PARELLA,PARELLA,,NO,G330,45.4299900,7.7910274,2.6886,201
TO,001180,PAVAROLO,PAVAROLO,,NO,G387,45.0689255,7.8347580,4.4056,201
TO,001181,PAVONE CANAVESE,PAVONE CANAVESE,,NO,G392,45.4352660,7.8539760,11.5399,201
TO,001183,PECETTO TORINESE,PECETTO TORINESE,,NO,G398,45.0195573,7.7486999,9.1482,201
TO,001184,PEROSA ARGENTINA,PEROSA ARGENTINA,,NO,G463,44.9580970,7.1923703,26.0905,201
TO,001185,PEROSA CANAVESE,PEROSA CANAVESE,,NO,G462,45.3971612,7.8292559,4.7080,201
TO,001186,PERRERO,PERRERO,,NO,G465,44.9374546,7.1152671,63.3937,201
TO,001187,PERTUSIO,PERTUSIO,,NO,G477,45.3534027,7.6387241,4.0041,201
TO,001188,PESSINETTO,PESSINETTO,,NO,G505,45.2905460,7.4028471,5.3498,201
TO,001189,PIANEZZA,PIANEZZA,,NO,G559,45.1006232,7.5463576,16.4634,201
TO,001190,PINASCA,PINASCA,,NO,G672,44.9426596,7.2276729,34.7185,201
TO,001191,PINEROLO,PINEROLO,,NO,G674,44.8873317,7.3320011,50.3375,201
TO,001192,PINO TORINESE,PINO TORINESE,,NO,G678,45.0435191,7.7721652,21.8153,201
TO,001193,PIOBESI TORINESE,PIOBESI TORINESE,,NO,G684,44.9330545,7.6119311,19.6488,201
TO,001194,PIOSSASCO,PIOSSASCO,,NO,G691,44.9906984,7.4627552,40.1458,201
TO,001195,PISCINA,PISCINA,,NO,G705,44.9194615,7.4258975,9.9033,201
TO,001196,PIVERONE,PIVERONE,,NO,G719,45.4475488,8.0071026,11.0347,201
TO,001197,POIRINO,POIRINO,,NO,G777,44.9211961,7.8436194,75.6190,201
TO,001198,POMARETTO,POMARETTO,,NO,G805,44.9550641,7.1822031,8.5611,201
TO,001199,PONT CANAVESE,PONT CANAVESE,,NO,G826,45.4207331,7.5935708,19.0611,201
TO,001200,PORTE,PORTE,,NO,G900,44.8875621,7.2679852,4.4477,201
TO,001201,PRAGELATO,PRAGELATO,,NO,G973,45.0162744,6.9422934,89.2018,201
TO,001202,PRALI,PRALI,,NO,G978,44.8904046,7.0490437,72.6097,201
TO,001203,PRALORMO,PRALORMO,,NO,G979,44.8613542,7.9006632,29.8460,201
TO,001204,PRAMOLLO,PRAMOLLO,,NO,G982,44.9045853,7.2116986,22.4785,201
TO,001205,PRAROSTINO,PRAROSTINO,,NO,G986,44.8658369,7.2697215,10.5051,201
TO,001206,PRASCORSANO,PRASCORSANO,,NO,G988,45.3676604,7.6157085,6.2419,201
TO,001207,PRATIGLIONE,PRATIGLIONE,,NO,G997,45.3536517,7.5960906,7.8802,201
TO,001208,QUAGLIUZZO,QUAGLIUZZO,,NO,H100,45.4264997,7.7818365,2.0379,201
TO,001209,QUASSOLO,QUASSOLO,,NO,H120,45.5249408,7.8324759,3.9560,201
TO,001210,QUINCINETTO,QUINCINETTO,,NO,H127,45.5608176,7.8057688,17.7884,201
TO,001211,REANO,REANO,,NO,H207,45.0517062,7.4295540,6.6657,201
TO,001212,RIBORDONE,RIBORDONE,,NO,H270,45.4316138,7.5024190,43.6001,201
TO,001213,RIVALBA,RIVALBA,,NO,H333,45.1188065,7.8870447,10.8333,201
TO,001214,RIVALTA DI TORINO,RIVALTA DI TORINO,,NO,H335,45.0345441,7.5232926,25.1076,201
TO,001215,RIVA PRESSO CHIERI,RIVA PRESSO CHIERI,,NO,H337,44.9862792,7.8691993,35.8330,201
TO,001216,RIVARA,RIVARA,,NO,H338,45.3323186,7.6250614,12.5839,201
TO,001217,RIVAROLO CANAVESE,RIVAROLO CANAVESE,,NO,H340,45.3327982,7.7252212,32.2460,201
TO,001218,RIVAROSSA,RIVAROSSA,,NO,H344,45.2512811,7.7171996,10.8733,201
TO,001219,RIVOLI,RIVOLI,,NO,H355,45.0706280,7.5339449,29.5000,201
TO,001220,ROBASSOMERO,ROBASSOMERO,,NO,H367,45.2000840,7.5701592,8.5773,201
TO,001221,ROCCA CANAVESE,ROCCA CANAVESE,,NO,H386,45.3094102,7.5785370,14.1910,201
TO,001222,ROLETTO,ROLETTO,,NO,H498,44.9252466,7.3306684,9.7040,201
TO,001223,ROMANO CANAVESE,ROMANO CANAVESE,,NO,H511,45.3913474,7.8679044,11.2106,201
TO,001224,RONCO CANAVESE,RONCO CANAVESE,,NO,H539,45.4994349,7.5456723,96.2688,201
TO,001225,RONDISSONE,RONDISSONE,,NO,H547,45.2467900,7.9658163,10.6878,201
TO,001226,RORÀ,RORÀ,,NO,H554,44.7923004,7.1984925,12.4078,201
TO,001227,ROURE,ROURE,,NO,H555,45.0010825,7.1290852,59.3733,201
TO,001228,ROSTA,ROSTA,,NO,H583,45.0714196,7.4639672,9.0649,201
TO,001229,RUBIANA,RUBIANA,,NO,H627,45.1392048,7.3823984,26.9371,201
TO,001230,RUEGLIO,RUEGLIO,,NO,H631,45.4678542,7.7558219,15.1003,201
TO,001231,SALASSA,SALASSA,,NO,H691,45.3595602,7.6893918,4.9520,201
TO,001232,SALBERTRAND,SALBERTRAND,,NO,H684,45.0723713,6.8836881,38.3197,201
TO,001233,SALERANO CANAVESE,SALERANO CANAVESE,,NO,H702,45.4564477,7.8499024,2.1034,201
TO,001234,SALZA DI PINEROLO,SALZA DI PINEROLO,,NO,H734,44.9405416,7.0532450,15.6752,201
TO,001235,SAMONE,SAMONE,,NO,H753,45.4492906,7.8456432,2.4329,201
TO,001236,SAN BENIGNO CANAVESE,SAN BENIGNO CANAVESE,,NO,H775,45.2239633,7.7826551,22.2315,201
TO,001237,SAN CARLO CANAVESE,SAN CARLO CANAVESE,,NO,H789,45.2481552,7.6101615,20.9068,201
TO,001238,SAN COLOMBANO BELMONTE,SAN COLOMBANO BELMONTE,,NO,H804,45.3814438,7.6184510,3.3808,201
TO,001239,SAN DIDERO,SAN DIDERO,,NO,H820,45.1351631,7.2151550,3.3037,201
TO,001240,SAN FRANCESCO AL CAMPO,SAN FRANCESCO AL CAMPO,,NO,H847,45.2255394,7.6556646,14.9795,201
TO,001241,SANGANO,SANGANO,,NO,H855,45.0262347,7.4505386,6.6512,201
TO,001242,SAN GERMANO CHISONE,SAN GERMANO CHISONE,,NO,H862,44.8987128,7.2408566,15.8619,201
TO,001243,SAN GILLIO,SAN GILLIO,,NO,H873,45.1420605,7.5338325,8.8867,201
TO,001244,SAN GIORGIO CANAVESE,SAN GIORGIO CANAVESE,,NO,H890,45.3354473,7.7942594,20.4051,201
TO,001245,SAN GIORIO DI SUSA,SAN GIORIO DI SUSA,,NO,H900,45.1284155,7.1775315,19.7367,201
TO,001246,SAN GIUSTO CANAVESE,SAN GIUSTO CANAVESE,,NO,H936,45.3122172,7.8083334,9.6130,201
TO,001247,SAN MARTINO CANAVESE,SAN MARTINO CANAVESE,,NO,H997,45.3945985,7.8183624,9.7933,201
TO,001248,SAN MAURIZIO CANAVESE,SAN MAURIZIO CANAVESE,,NO,I024,45.2191199,7.6307530,17.3443,201
TO,001249,SAN MAURO TORINESE,SAN MAURO TORINESE,,NO,I030,45.1030953,7.7663283,12.5489,201
TO,001250,SAN PIETRO VAL LEMINA,SAN PIETRO VAL LEMINA,,NO,I090,44.9073254,7.3135553,12.4441,201
TO,001251,SAN PONSO,SAN PONSO,,NO,I126,45.3508201,7.6675166,2.1243,201
TO,001252,SAN RAFFAELE CIMENA,SAN RAFFAELE CIMENA,,NO,I137,45.1472256,7.8486967,11.1226,201
TO,001253,SAN SEBASTIANO DA PO,SAN SEBASTIANO DA PO,,NO,I152,45.1664428,7.9534693,16.5783,201
TO,001254,SAN SECONDO DI PINEROLO,SAN SECONDO DI PINEROLO,,NO,I154,44.8665626,7.2986478,12.5720,201
TO,001255,SANT'AMBROGIO DI TORINO,SANT'AMBROGIO DI TORINO,,NO,I258,45.0996877,7.3593131,8.3684,201
TO,001256,SANT'ANTONINO DI SUSA,SANT'ANTONINO DI SUSA,,NO,I296,45.1070831,7.2735097,9.7947,201
TO,001257,SANTENA,SANTENA,,NO,I327,44.9496848,7.7731601,16.1984,201
TO,001258,SAUZE DI CESANA,SAUZE DI CESANA,,NO,I465,44.9404442,6.8604972,78.2773,201
TO,001259,SAUZE D'OULX,SAUZE D'OULX,,NO,I466,45.0280858,6.8582494,17.3112,201
TO,001260,SCALENGHE,SCALENGHE,,NO,I490,44.8883060,7.4979654,31.6768,201
TO,001261,SCARMAGNO,SCARMAGNO,,NO,I511,45.3858304,7.8407105,8.0309,201
TO,001262,SCIOLZE,SCIOLZE,,NO,I539,45.0950363,7.8776624,11.3557,201
TO,001263,SESTRIERE,SESTRIERE,,NO,I692,44.9576468,6.8765512,25.9159,201
TO,001264,SETTIMO ROTTARO,SETTIMO ROTTARO,,NO,I701,45.4049042,7.9922308,6.0579,201
TO,001265,SETTIMO TORINESE,SETTIMO TORINESE,,NO,I703,45.1369893,7.7712401,31.3902,201
TO,001266,SETTIMO VITTONE,SETTIMO VITTONE,,NO,I702,45.5481131,7.8317209,23.2614,201
TO,001267,SPARONE,SPARONE,,NO,I886,45.4133052,7.5442141,29.6786,201
TO,001268,STRAMBINELLO,STRAMBINELLO,,NO,I969,45.4232477,7.7686620,2.2140,201
TO,001269,STRAMBINO,STRAMBINO,,NO,I970,45.3845912,7.8806282,22.4686,201
TO,001270,SUSA,SUSA,,NO,L013,45.1352513,7.0464196,10.9880,201
TO,001271,TAVAGNASCO,TAVAGNASCO,,NO,L066,45.5432265,7.8226103,8.6750,201
TO,001272,TORINO,TORINO,,SI,L219,45.0732740,7.6806875,129.9988,201
TO,001273,TORRAZZA PIEMONTE,TORRAZZA PIEMONTE,,NO,L238,45.2152115,7.9749012,9.8239,201
TO,001274,TORRE CANAVESE,TORRE CANAVESE,,NO,L247,45.3918288,7.7605391,5.4545,201
TO,001275,TORRE PELLICE,TORRE PELLICE,,NO,L277,44.8207373,7.2239787,21.0981,201
TO,001276,TRANA,TRANA,,NO,L327,45.0370941,7.4173032,16.4058,201
TO,001278,TRAVERSELLA,TRAVERSELLA,,NO,L345,45.5094155,7.7504099,39.3600,201
TO,001279,TRAVES,TRAVES,,NO,L340,45.2705812,7.4297477,10.4544,201
TO,001280,TROFARELLO,TROFARELLO,,NO,L445,44.9859626,7.7403033,12.3476,201
TO,001281,USSEAUX,USSEAUX,,NO,L515,45.0484973,7.0268735,37.9669,201
TO,001282,USSEGLIO,USSEGLIO,,NO,L516,45.2327269,7.2172202,98.5378,201
TO,001283,VAIE,VAIE,,NO,L538,45.1018931,7.2866307,7.2293,201
TO,001284,VAL DELLA TORRE,VAL DELLA TORRE,,NO,L555,45.1555656,7.4494114,36.5262,201
TO,001285,VALGIOIE,VALGIOIE,,NO,L578,45.0760079,7.3396396,9.1197,201
TO,001286,VALLO TORINESE,VALLO TORINESE,,NO,L629,45.2235028,7.4992892,6.0792,201
TO,001287,VALPERGA,VALPERGA,,NO,L644,45.3702749,7.6567870,11.9095,201
TO,001288,VALPRATO SOANA,VALPRATO SOANA,,NO,B510,45.5223800,7.5489663,71.8553,201
TO,001289,VARISELLA,VARISELLA,,NO,L685,45.2098424,7.4890253,22.5578,201
TO,001290,VAUDA CANAVESE,VAUDA CANAVESE,,NO,L698,45.2792452,7.6182078,7.0929,201
TO,001291,VENAUS,VENAUS,,NO,L726,45.1547026,7.0119477,19.1436,201
TO,001292,VENARIA REALE,VENARIA REALE,,NO,L727,45.1325378,7.6314973,20.4469,201
TO,001293,VEROLENGO,VEROLENGO,,NO,L779,45.1890505,7.9671578,29.4607,201
TO,001294,VERRUA SAVOIA,VERRUA SAVOIA,,NO,L787,45.1565508,8.0931476,31.9434,201
TO,001295,VESTIGNÈ,VESTIGNÈ,,NO,L811,45.3867057,7.9538786,12.0691,201
TO,001296,VIALFRÈ,VIALFRÈ,,NO,L830,45.3808430,7.8181718,4.6453,201
TO,001298,VIDRACCO,VIDRACCO,,NO,L857,45.4304595,7.7590151,2.9677,201
TO,001299,VIGONE,VIGONE,,NO,L898,44.8423520,7.4945243,41.1543,201
TO,001300,VILLAFRANCA PIEMONTE,VILLAFRANCA PIEMONTE,,NO,L948,44.7812774,7.5045086,50.7862,201
TO,001301,VILLANOVA CANAVESE,VILLANOVA CANAVESE,,NO,L982,45.2429376,7.5535404,4.0307,201
TO,001302,VILLARBASSE,VILLARBASSE,,NO,M002,45.0448707,7.4680010,10.4088,201
TO,001303,VILLAR DORA,VILLAR DORA,,NO,L999,45.1178382,7.3838222,5.7067,201
TO,001304,VILLAREGGIA,VILLAREGGIA,,NO,M004,45.3110147,7.9785000,11.4096,201
TO,001305,VILLAR FOCCHIARDO,VILLAR FOCCHIARDO,,NO,M007,45.1097152,7.2266896,25.6867,201
TO,001306,VILLAR PELLICE,VILLAR PELLICE,,NO,M013,44.8085876,7.1582795,60.2930,201
TO,001307,VILLAR PEROSA,VILLAR PEROSA,,NO,M014,44.9201904,7.2492690,11.4231,201
TO,001308,VILLASTELLONE,VILLASTELLONE,,NO,M027,44.9215522,7.7453533,19.8766,201
TO,001309,VINOVO,VINOVO,,NO,M060,44.9487821,7.6342416,17.6327,201
TO,001310,VIRLE PIEMONTE,VIRLE PIEMONTE,,NO,M069,44.8659384,7.5688908,14.0573,201
TO,001311,VISCHE,VISCHE,,NO,M071,45.3315726,7.9513803,17.0748,201
TO,001312,VISTRORIO,VISTRORIO,,NO,M080,45.4411020,7.7694197,4.6818,201
TO,001313,VIÙ,VIÙ,,NO,M094,45.2389441,7.3764679,84.1122,201
TO,001314,VOLPIANO,VOLPIANO,,NO,M122,45.2019004,7.7755503,32.4806,201
TO,001315,VOLVERA,VOLVERA,,NO,M133,44.9550226,7.5123049,20.9827,201
TO,001316,MAPPANO,MAPPANO,,NO,M316,45.1508883,7.7038044,9.8174,201
TO,001317,VAL DI CHY,VAL DI CHY,,NO,M405,45.4620916,7.7731373,13.8310,201
TO,001318,VALCHIUSA,VALCHIUSA,,NO,M415,45.5203549,7.7071179,49.6268,201
VC,002002,ALAGNA VALSESIA,ALAGNA VALSESIA,,NO,A119,45.8533368,7.9381296,133.1714,002
VC,002003,ALBANO VERCELLESE,ALBANO VERCELLESE,,NO,A130,45.4251196,8.3805828,13.7809,002
VC,002004,ALICE CASTELLO,ALICE CASTELLO,,NO,A198,45.3665324,8.0746946,24.5650,002
VC,002006,ARBORIO,ARBORIO,,NO,A358,45.4960914,8.3889854,23.3102,002
VC,002007,ASIGLIANO VERCELLESE,ASIGLIANO VERCELLESE,,NO,A466,45.2611784,8.4061942,26.3155,002
VC,002008,BALMUCCIA,BALMUCCIA,,NO,A600,45.8183577,8.1382562,9.7885,002
VC,002009,BALOCCO,BALOCCO,,NO,A601,45.4555397,8.2810335,16.8080,002
VC,002011,BIANZÈ,BIANZÈ,,NO,A847,45.3073811,8.1200641,41.8059,002
VC,002014,BOCCIOLETO,BOCCIOLETO,,NO,A914,45.8299973,8.1132908,33.8706,002
VC,002015,BORGO D'ALE,BORGO D'ALE,,NO,B009,45.3499212,8.0537270,39.5697,002
VC,002016,BORGOSESIA,BORGOSESIA,,NO,B041,45.7167385,8.2764104,41.0898,002
VC,002017,BORGO VERCELLI,BORGO VERCELLI,,NO,B046,45.3571618,8.4663705,19.2954,002
VC,002021,BURONZO,BURONZO,,NO,B280,45.4821244,8.2683343,25.0767,002
VC,002025,CAMPERTOGNO,CAMPERTOGNO,,NO,B505,45.7986834,8.0321670,34.1364,002
VC,002029,CARCOFORO,CARCOFORO,,NO,B752,45.9089017,8.0489014,22.8002,002
VC,002030,CARESANA,CARESANA,,NO,B767,45.2210857,8.5064856,24.1088,002
VC,002031,CARESANABLOT,CARESANABLOT,,NO,B768,45.3573559,8.3887727,11.0218,002
VC,002032,CARISIO,CARISIO,,NO,B782,45.4084654,8.1985860,30.1058,002
VC,002033,CASANOVA ELVO,CASANOVA ELVO,,NO,B928,45.3995339,8.2933068,16.2050,002
VC,002035,SAN GIACOMO VERCELLESE,SAN GIACOMO VERCELLESE,,NO,B952,45.4974175,8.3253451,9.6044,002
VC,002041,CERVATTO,CERVATTO,,NO,C548,45.8830922,8.1623540,9.5379,002
VC,002042,CIGLIANO,CIGLIANO,,NO,C680,45.3095599,8.0214890,25.3436,002
VC,002043,CIVIASCO,CIVIASCO,,NO,C757,45.8066954,8.2927871,7.3882,002
VC,002045,COLLOBIANO,COLLOBIANO,,NO,C884,45.3971293,8.3485358,9.2231,002
VC,002047,COSTANZANA,COSTANZANA,,NO,D113,45.2361993,8.3700654,20.9678,002
VC,002048,CRAVAGLIANA,CRAVAGLIANA,,NO,D132,45.8473583,8.2011295,34.8563,002
VC,002049,CRESCENTINO,CRESCENTINO,,NO,D154,45.1923283,8.1025827,48.2234,002
VC,002052,CROVA,CROVA,,NO,D187,45.3300408,8.2119299,14.0163,002
VC,002054,DESANA,DESANA,,NO,D281,45.2687361,8.3574505,16.4768,002
VC,002057,FOBELLO,FOBELLO,,NO,D641,45.8895691,8.1589187,28.1401,002
VC,002058,FONTANETTO PO,FONTANETTO PO,,NO,D676,45.1933967,8.1917165,23.2425,002
VC,002059,FORMIGLIANA,FORMIGLIANA,,NO,D712,45.4287819,8.2929105,16.7627,002
VC,002061,GATTINARA,GATTINARA,,NO,D938,45.6173520,8.3712807,33.6666,002
VC,002062,GHISLARENGO,GHISLARENGO,,NO,E007,45.5293231,8.3843230,12.5030,002
VC,002065,GREGGIO,GREGGIO,,NO,E163,45.4518081,8.3824755,11.8819,002
VC,002066,GUARDABOSONE,GUARDABOSONE,,NO,E237,45.7009478,8.2503224,6.0876,002
VC,002067,LAMPORO,LAMPORO,,NO,E433,45.2300833,8.0975502,9.6440,002
VC,002068,LENTA,LENTA,,NO,E528,45.5555702,8.3844480,18.9703,002
VC,002070,LIGNANA,LIGNANA,,NO,E583,45.2852984,8.3460464,22.5740,002
VC,002071,LIVORNO FERRARIS,LIVORNO FERRARIS,,NO,E626,45.2816618,8.0819976,57.9917,002
VC,002072,LOZZOLO,LOZZOLO,,NO,E711,45.6225953,8.3220794,6.6670,002
VC,002078,MOLLIA,MOLLIA,,NO,F297,45.8152932,8.0309665,13.9178,002
VC,002079,MONCRIVELLO,MONCRIVELLO,,NO,F342,45.3312332,7.9958611,20.1818,002
VC,002082,MOTTA DE' CONTI,MOTTA DE' CONTI,,NO,F774,45.1915035,8.5207710,11.7159,002
VC,002088,OLCENENGO,OLCENENGO,,NO,G016,45.3635979,8.3113898,16.4959,002
VC,002089,OLDENICO,OLDENICO,,NO,G018,45.4023576,8.3827208,6.5271,002
VC,002090,PALAZZOLO VERCELLESE,PALAZZOLO VERCELLESE,,NO,G266,45.1845011,8.2328243,13.9396,002
VC,002091,PERTENGO,PERTENGO,,NO,G471,45.2356219,8.4176290,8.2949,002
VC,002093,PEZZANA,PEZZANA,,NO,G528,45.2620659,8.4842019,17.3518,002
VC,002096,PILA,PILA,,NO,G666,45.7702581,8.0808151,8.6903,002
VC,002097,PIODE,PIODE,,NO,G685,45.7697758,8.0530867,13.5977,002
VC,002102,POSTUA,POSTUA,,NO,G940,45.7141971,8.2314962,16.1781,002
VC,002104,PRAROLO,PRAROLO,,NO,G985,45.2822302,8.4793438,11.5389,002
VC,002107,QUARONA,QUARONA,,NO,H108,45.7598619,8.2654215,16.1560,002
VC,002108,QUINTO VERCELLESE,QUINTO VERCELLESE,,NO,H132,45.3804833,8.3621848,10.9026,002
VC,002110,RASSA,RASSA,,NO,H188,45.7686363,8.0141933,43.2703,002
VC,002113,RIMELLA,RIMELLA,,NO,H293,45.9079532,8.1825922,26.2705,002
VC,002115,RIVE,RIVE,,NO,H346,45.2125683,8.4183193,9.4090,002
VC,002116,ROASIO,ROASIO,,NO,H365,45.6086313,8.2889284,27.9151,002
VC,002118,RONSECCO,RONSECCO,,NO,H549,45.2535053,8.2777719,24.4754,002
VC,002121,ROSSA,ROSSA,,NO,H577,45.8335577,8.1256449,11.8379,002
VC,002122,ROVASENDA,ROVASENDA,,NO,H364,45.5367966,8.3136149,29.2677,002
VC,002126,SALASCO,SALASCO,,NO,H690,45.3252919,8.2637808,12.1875,002
VC,002127,SALI VERCELLESE,SALI VERCELLESE,,NO,H707,45.3093341,8.3296825,8.7766,002
VC,002128,SALUGGIA,SALUGGIA,,NO,H725,45.2358358,8.0111381,31.5980,002
VC,002131,SAN GERMANO VERCELLESE,SAN GERMANO VERCELLESE,,NO,H861,45.3501865,8.2509496,30.6403,002
VC,002133,SANTHIÀ,SANTHIÀ,,NO,I337,45.3669258,8.1743501,53.1290,002
VC,002134,SCOPA,SCOPA,,NO,I544,45.7917234,8.1131603,22.5335,002
VC,002135,SCOPELLO,SCOPELLO,,NO,I545,45.7736830,8.0948415,18.2547,002
VC,002137,SERRAVALLE SESIA,SERRAVALLE SESIA,,NO,I663,45.6861578,8.3114752,20.9050,002
VC,002142,STROPPIANA,STROPPIANA,,NO,I984,45.2313972,8.4534773,18.3141,002
VC,002147,TRICERRO,TRICERRO,,NO,L420,45.2337999,8.3251494,12.2491,002
VC,002148,TRINO,TRINO,,NO,L429,45.1942074,8.2969005,70.6058,002
VC,002150,TRONZANO VERCELLESE,TRONZANO VERCELLESE,,NO,L451,45.3427938,8.1746927,44.7509,002
VC,002152,VALDUGGIA,VALDUGGIA,,NO,L566,45.7263977,8.3278565,28.4267,002
VC,002156,VARALLO,VARALLO,,NO,L669,45.8140503,8.2562118,102.9738,002
VC,002158,VERCELLI,VERCELLI,,SI,L750,45.3239845,8.4232343,79.7747,002
VC,002163,VILLARBOIT,VILLARBOIT,,NO,M003,45.4366580,8.3368690,25.5109,002
VC,002164,VILLATA,VILLATA,,NO,M028,45.3856147,8.4326028,14.5825,002
VC,002166,VOCCA,VOCCA,,NO,M106,45.8309936,8.1875302,20.2573,002
VC,002170,ALTO SERMENZA,ALTO SERMENZA,,NO,M389,45.8766504,8.0290444,60.3257,002
VC,002171,CELLIO CON BREIA,CELLIO CON BREIA,,NO,M398,45.7607088,8.3117470,17.2796,002
NO,003001,AGRATE CONTURBIA,AGRATE CONTURBIA,,NO,A088,45.6759896,8.5599266,14.5362,003
NO,003002,AMENO,AMENO,,NO,A264,45.7887932,8.4394275,9.9965,003
NO,003006,ARMENO,ARMENO,,NO,A414,45.8219765,8.4391789,31.5153,003
NO,003008,ARONA,ARONA,,NO,A429,45.7604019,8.5594897,15.1698,003
NO,003012,BARENGO,BARENGO,,NO,A653,45.5747818,8.5120132,19.4928,003
NO,003016,BELLINZAGO NOVARESE,BELLINZAGO NOVARESE,,NO,A752,45.5703104,8.6397311,39.1788,003
NO,003018,BIANDRATE,BIANDRATE,,NO,A844,45.4537873,8.4637055,12.4537,003
NO,003019,BOCA,BOCA,,NO,A911,45.6782956,8.4087054,9.6080,003
NO,003021,BOGOGNO,BOGOGNO,,NO,A929,45.6671743,8.5344991,8.4826,003
NO,003022,BOLZANO NOVARESE,BOLZANO NOVARESE,,NO,A953,45.7628355,8.4441526,3.3043,003
NO,003023,BORGOLAVEZZARO,BORGOLAVEZZARO,,NO,B016,45.3183864,8.6992676,21.0915,003
NO,003024,BORGOMANERO,BORGOMANERO,,NO,B019,45.6988830,8.4629865,32.2544,003
NO,003025,BORGO TICINO,BORGO TICINO,,NO,B043,45.6880765,8.6039222,13.3812,003
NO,003026,BRIGA NOVARESE,BRIGA NOVARESE,,NO,B176,45.7313926,8.4515914,4.7479,003
NO,003027,BRIONA,BRIONA,,NO,B183,45.5422061,8.4798193,24.7563,003
NO,003030,CALTIGNAGA,CALTIGNAGA,,NO,B431,45.5170920,8.5879148,22.3213,003
NO,003032,CAMERI,CAMERI,,NO,B473,45.5010303,8.6622435,39.9852,003
NO,003036,CARPIGNANO SESIA,CARPIGNANO SESIA,,NO,B823,45.5353124,8.4183407,14.6556,003
NO,003037,CASALBELTRAME,CASALBELTRAME,,NO,B864,45.4362445,8.4683785,16.0407,003
NO,003039,CASALEGGIO NOVARA,CASALEGGIO NOVARA,,NO,B883,45.4863093,8.4926659,10.5310,003
NO,003040,CASALINO,CASALINO,,NO,B897,45.3576850,8.5227352,39.4893,003
NO,003041,CASALVOLONE,CASALVOLONE,,NO,B920,45.3994628,8.4643646,17.4845,003
NO,003042,CASTELLAZZO NOVARESE,CASTELLAZZO NOVARESE,,NO,C149,45.5139988,8.4887075,10.7917,003
NO,003043,CASTELLETTO SOPRA TICINO,CASTELLETTO SOPRA TICINO,,NO,C166,45.7140591,8.6423732,14.6413,003
NO,003044,CAVAGLIETTO,CAVAGLIETTO,,NO,C364,45.6028078,8.5009121,6.4854,003
NO,003045,CAVAGLIO D'AGOGNA,CAVAGLIO D'AGOGNA,,NO,C365,45.6118196,8.4827860,9.8334,003
NO,003047,CAVALLIRIO,CAVALLIRIO,,NO,C378,45.6649690,8.3967364,8.3261,003
NO,003049,CERANO,CERANO,,NO,C483,45.4106786,8.7808551,32.6335,003
NO,003051,COLAZZA,COLAZZA,,NO,C829,45.7926355,8.4990851,3.1617,003
NO,003052,COMIGNAGO,COMIGNAGO,,NO,C926,45.7152483,8.5651231,4.4493,003
NO,003055,CRESSA,CRESSA,,NO,D162,45.6480020,8.5074836,7.1035,003
NO,003058,CUREGGIO,CUREGGIO,,NO,D216,45.6751385,8.4613609,8.5067,003
NO,003060,DIVIGNANO,DIVIGNANO,,NO,D309,45.6622872,8.6014953,4.9346,003
NO,003062,DORMELLETTO,DORMELLETTO,,NO,D347,45.7301706,8.5731841,7.2522,003
NO,003065,FARA NOVARESE,FARA NOVARESE,,NO,D492,45.5551244,8.4591121,9.2145,003
NO,003066,FONTANETO D'AGOGNA,FONTANETO D'AGOGNA,,NO,D675,45.6398670,8.4845827,21.1702,003
NO,003068,GALLIATE,GALLIATE,,NO,D872,45.4777007,8.6952726,29.3663,003
NO,003069,GARBAGNA NOVARESE,GARBAGNA NOVARESE,,NO,D911,45.3866548,8.6596796,10.0494,003
NO,003070,GARGALLO,GARGALLO,,NO,D921,45.7275134,8.4292154,3.7697,003
NO,003073,GHEMME,GHEMME,,NO,E001,45.5978178,8.4200910,20.6439,003
NO,003076,GOZZANO,GOZZANO,,NO,E120,45.7475661,8.4346508,12.5821,003
NO,003077,GRANOZZO CON MONTICELLO,GRANOZZO CON MONTICELLO,,NO,E143,45.3601442,8.5741367,19.5209,003
NO,003079,GRIGNASCO,GRIGNASCO,,NO,E177,45.6819106,8.3397089,14.3336,003
NO,003082,INVORIO,INVORIO,,NO,E314,45.7559157,8.4867397,17.3717,003
NO,003083,LANDIONA,LANDIONA,,NO,E436,45.4969127,8.4221687,7.2833,003
NO,003084,LESA,LESA,,NO,E544,45.8301213,8.5648443,13.5807,003
NO,003088,MAGGIORA,MAGGIORA,,NO,E803,45.6907627,8.4209948,10.6586,003
NO,003090,MANDELLO VITTA,MANDELLO VITTA,,NO,E880,45.4952380,8.4591859,5.8541,003
NO,003091,MARANO TICINO,MARANO TICINO,,NO,E907,45.6298317,8.6319364,7.7880,003
NO,003093,MASSINO VISCONTI,MASSINO VISCONTI,,NO,F047,45.8219143,8.5388081,6.8639,003
NO,003095,MEINA,MEINA,,NO,F093,45.7900448,8.5376017,7.5353,003
NO,003097,MEZZOMERICO,MEZZOMERICO,,NO,F188,45.6202916,8.6046200,7.7187,003
NO,003098,MIASINO,MIASINO,,NO,F191,45.8021998,8.4303610,5.5209,003
NO,003100,MOMO,MOMO,,NO,F317,45.5739190,8.5553705,23.5907,003
NO,003103,NEBBIUNO,NEBBIUNO,,NO,F859,45.8060862,8.5242387,8.2650,003
NO,003104,NIBBIOLA,NIBBIOLA,,NO,F886,45.3717892,8.6563525,11.3421,003
NO,003106,NOVARA,NOVARA,,SI,F952,45.4458900,8.6219159,103.0499,003
NO,003108,OLEGGIO,OLEGGIO,,NO,G019,45.5966950,8.6373638,37.7945,003
NO,003109,OLEGGIO CASTELLO,OLEGGIO CASTELLO,,NO,G020,45.7493254,8.5297117,5.9352,003
NO,003112,ORTA SAN GIULIO,ORTA SAN GIULIO,,NO,G134,45.7991727,8.4056846,6.6500,003
NO,003114,PARUZZARO,PARUZZARO,,NO,G349,45.7486966,8.5134575,5.2272,003
NO,003115,PELLA,PELLA,,NO,G421,45.7970808,8.3831169,8.1338,003
NO,003116,PETTENASCO,PETTENASCO,,NO,G520,45.8173318,8.4085751,7.0708,003
NO,003119,PISANO,PISANO,,NO,G703,45.7935586,8.5104372,2.7659,003
NO,003120,POGNO,POGNO,,NO,G775,45.7566818,8.3830747,9.8648,003
NO,003121,POMBIA,POMBIA,,NO,G809,45.6492746,8.6323887,12.2967,003
NO,003122,PRATO SESIA,PRATO SESIA,,NO,H001,45.6478829,8.3737739,12.1259,003
NO,003129,RECETTO,RECETTO,,NO,H213,45.4608115,8.4360882,8.8525,003
NO,003130,ROMAGNANO SESIA,ROMAGNANO SESIA,,NO,H502,45.6333577,8.3828761,17.9757,003
NO,003131,ROMENTINO,ROMENTINO,,NO,H518,45.4626094,8.7208535,17.6907,003
NO,003133,SAN MAURIZIO D'OPAGLIO,SAN MAURIZIO D'OPAGLIO,,NO,I025,45.7724817,8.3909580,8.5098,003
NO,003134,SAN NAZZARO SESIA,SAN NAZZARO SESIA,,NO,I052,45.4381361,8.4235666,11.4507,003
NO,003135,SAN PIETRO MOSEZZO,SAN PIETRO MOSEZZO,,NO,I116,45.4556152,8.5434721,34.8993,003
NO,003138,SILLAVENGO,SILLAVENGO,,NO,I736,45.5204608,8.4405271,9.5352,003
NO,003139,SIZZANO,SIZZANO,,NO,I767,45.5773532,8.4373333,10.7544,003
NO,003140,SORISO,SORISO,,NO,I857,45.7422787,8.4093648,6.3718,003
NO,003141,SOZZAGO,SOZZAGO,,NO,I880,45.3978220,8.7209774,12.9144,003
NO,003143,SUNO,SUNO,,NO,L007,45.6311527,8.5409244,21.3270,003
NO,003144,TERDOBBIATE,TERDOBBIATE,,NO,L104,45.3763568,8.6950970,8.4632,003
NO,003146,TORNACO,TORNACO,,NO,L223,45.3573679,8.7179066,13.2410,003
NO,003149,TRECATE,TRECATE,,NO,L356,45.4319091,8.7350555,38.2225,003
NO,003153,VAPRIO D'AGOGNA,VAPRIO D'AGOGNA,,NO,L668,45.6035421,8.5540506,10.0122,003
NO,003154,VARALLO POMBIA,VARALLO POMBIA,,NO,L670,45.6667102,8.6330527,13.7680,003
NO,003158,VESPOLATE,VESPOLATE,,NO,L808,45.3494764,8.6690381,17.7798,003
NO,003159,VICOLUNGO,VICOLUNGO,,NO,L847,45.4788349,8.4613171,13.2938,003
NO,003164,VINZAGLIO,VINZAGLIO,,NO,M062,45.3236585,8.5184053,15.4635,003
NO,003166,GATTICO-VERUNO,GATTICO-VERUNO,,NO,M416,45.7051751,8.5268411,26.1871,003
CN,004001,ACCEGLIO,ACCEGLIO,,NO,A016,44.4757985,6.9912226,151.5278,004
CN,004002,AISONE,AISONE,,NO,A113,44.3134369,7.2208339,36.9173,004
CN,004003,ALBA,ALBA,,NO,A124,44.7009160,8.0356990,53.5852,004
CN,004004,ALBARETTO DELLA TORRE,ALBARETTO DELLA TORRE,,NO,A139,44.5959075,8.0640823,4.5899,004
CN,004005,ALTO,ALTO,,NO,A238,44.1082689,8.0036858,7.4616,004
CN,004006,ARGENTERA,ARGENTERA,,NO,A394,44.3795782,6.9693782,76.2592,004
CN,004007,ARGUELLO,ARGUELLO,,NO,A396,44.5829193,8.1106798,4.9174,004
CN,004008,BAGNASCO,BAGNASCO,,NO,A555,44.3020597,8.0425832,30.9491,004
CN,004009,BAGNOLO PIEMONTE,BAGNOLO PIEMONTE,,NO,A571,44.7598976,7.3154823,63.2494,004
CN,004010,BALDISSERO D'ALBA,BALDISSERO D'ALBA,,NO,A589,44.7587078,7.9157493,15.3263,004
CN,004011,BARBARESCO,BARBARESCO,,NO,A629,44.7255426,8.0804646,7.7636,004
CN,004012,BARGE,BARGE,,NO,A660,44.7252145,7.3233938,81.9913,004
CN,004013,BAROLO,BAROLO,,NO,A671,44.6098752,7.9418082,5.7095,004
CN,004014,BASTIA MONDOVÌ,BASTIA MONDOVÌ,,NO,A709,44.4413762,7.8933219,12.0007,004
CN,004015,BATTIFOLLO,BATTIFOLLO,,NO,A716,44.3191594,8.0094814,11.1195,004
CN,004016,BEINETTE,BEINETTE,,NO,A735,44.3656571,7.6457067,17.6863,004
CN,004017,BELLINO,BELLINO,,NO,A750,44.5805979,7.0171607,62.0700,004
CN,004018,BELVEDERE LANGHE,BELVEDERE LANGHE,,NO,A774,44.4945561,7.9741677,5.0030,004
CN,004019,BENE VAGIENNA,BENE VAGIENNA,,NO,A779,44.5452312,7.8328253,48.9673,004
CN,004020,BENEVELLO,BENEVELLO,,NO,A782,44.6281819,8.1059188,5.4389,004
CN,004021,BERGOLO,BERGOLO,,NO,A798,44.5480034,8.1835260,3.1118,004
CN,004022,BERNEZZO,BERNEZZO,,NO,A805,44.3885948,7.4353103,25.8633,004
CN,004023,BONVICINO,BONVICINO,,NO,A979,44.5036111,8.0159202,7.2409,004
CN,004024,BORGOMALE,BORGOMALE,,NO,B018,44.6204344,8.1327556,8.4778,004
CN,004025,BORGO SAN DALMAZZO,BORGO SAN DALMAZZO,,NO,B033,44.3287485,7.4874639,22.3398,004
CN,004026,BOSIA,BOSIA,,NO,B079,44.6024594,8.1462032,5.5405,004
CN,004027,BOSSOLASCO,BOSSOLASCO,,NO,B084,44.5267822,8.0575028,14.5453,004
CN,004028,BOVES,BOVES,,NO,B101,44.3298085,7.5519949,50.9483,004
CN,004029,BRA,BRA,,NO,B111,44.6981762,7.8547477,59.5299,004
CN,004030,BRIAGLIA,BRIAGLIA,,NO,B167,44.3951070,7.8769895,6.2376,004
CN,004031,BRIGA ALTA,BRIGA ALTA,,NO,B175,44.0832046,7.7507606,52.1796,004
CN,004032,BRONDELLO,BRONDELLO,,NO,B200,44.6000492,7.4051372,10.1240,004
CN,004033,BROSSASCO,BROSSASCO,,NO,B204,44.5702890,7.3604423,28.0638,004
CN,004034,BUSCA,BUSCA,,NO,B285,44.5136882,7.4735215,76.7645,004
CN,004035,CAMERANA,CAMERANA,,NO,B467,44.4226542,8.1407987,23.6377,004
CN,004037,CANALE,CANALE,,NO,B573,44.7972027,7.9914096,17.8653,004
CN,004038,CANOSIO,CANOSIO,,NO,B621,44.4553172,7.0813913,48.4476,004
CN,004039,CAPRAUNA,CAPRAUNA,,NO,B692,44.1158086,7.9549407,11.5018,004
CN,004040,CARAGLIO,CARAGLIO,,NO,B719,44.4177060,7.4276210,41.6760,004
CN,004041,CARAMAGNA PIEMONTE,CARAMAGNA PIEMONTE,,NO,B720,44.7804298,7.7411759,26.3283,004
CN,004042,CARDÈ,CARDÈ,,NO,B755,44.7441733,7.4782160,19.3043,004
CN,004043,CARRÙ,CARRÙ,,NO,B841,44.4785823,7.8800643,25.8380,004
CN,004044,CARTIGNANO,CARTIGNANO,,NO,B845,44.4770751,7.2876953,6.4192,004
CN,004045,CASALGRASSO,CASALGRASSO,,NO,B894,44.8194982,7.6249607,17.8063,004
CN,004046,CASTAGNITO,CASTAGNITO,,NO,C046,44.7564728,8.0301526,7.1148,004
CN,004047,CASTELDELFINO,CASTELDELFINO,,NO,C081,44.5909638,7.0690319,33.9514,004
CN,004049,CASTELLETTO STURA,CASTELLETTO STURA,,NO,C165,44.4442194,7.6390511,17.1301,004
CN,004050,CASTELLETTO UZZONE,CASTELLETTO UZZONE,,NO,C167,44.4925707,8.1859833,14.8586,004
CN,004051,CASTELLINALDO D'ALBA,CASTELLINALDO D'ALBA,,NO,C173,44.7753259,8.0315351,7.8029,004
CN,004052,CASTELLINO TANARO,CASTELLINO TANARO,,NO,C176,44.4277639,7.9818872,11.5394,004
CN,004053,CASTELMAGNO,CASTELMAGNO,,NO,C205,44.4091542,7.2123292,49.3070,004
CN,004054,CASTELNUOVO DI CEVA,CASTELNUOVO DI CEVA,,NO,C214,44.3532974,8.1301966,6.2621,004
CN,004055,CASTIGLIONE FALLETTO,CASTIGLIONE FALLETTO,,NO,C314,44.6233304,7.9790348,4.7202,004
CN,004056,CASTIGLIONE TINELLA,CASTIGLIONE TINELLA,,NO,C317,44.7260407,8.1894313,11.6340,004
CN,004057,CASTINO,CASTINO,,NO,C323,44.6169882,8.1812139,15.5228,004
CN,004058,CAVALLERLEONE,CAVALLERLEONE,,NO,C375,44.7394377,7.6627358,16.4378,004
CN,004059,CAVALLERMAGGIORE,CAVALLERMAGGIORE,,NO,C376,44.7078515,7.6877480,51.5948,004
CN,004060,CELLE DI MACRA,CELLE DI MACRA,,NO,C441,44.4825618,7.1796736,31.1053,004
CN,004061,CENTALLO,CENTALLO,,NO,C466,44.5041151,7.5901488,42.4850,004
CN,004062,CERESOLE ALBA,CERESOLE ALBA,,NO,C504,44.7995197,7.8205661,37.0487,004
CN,004063,CERRETTO LANGHE,CERRETTO LANGHE,,NO,C530,44.5743318,8.0978397,10.1423,004
CN,004064,CERVASCA,CERVASCA,,NO,C547,44.3831496,7.4678883,18.2230,004
CN,004065,CERVERE,CERVERE,,NO,C550,44.6347449,7.7931675,18.5960,004
CN,004066,CEVA,CEVA,,NO,C589,44.3862246,8.0352173,43.1656,004
CN,004067,CHERASCO,CHERASCO,,NO,C599,44.6522187,7.8582036,81.5352,004
CN,004068,CHIUSA DI PESIO,CHIUSA DI PESIO,,NO,C653,44.3247588,7.6778844,95.0188,004
CN,004069,CIGLIÈ,CIGLIÈ,,NO,C681,44.4350586,7.9262261,6.1219,004
CN,004070,CISSONE,CISSONE,,NO,C738,44.5630956,8.0305096,5.9034,004
CN,004071,CLAVESANA,CLAVESANA,,NO,C792,44.4821379,7.9119823,17.1509,004
CN,004072,CORNELIANO D'ALBA,CORNELIANO D'ALBA,,NO,D022,44.7355335,7.9612917,10.0872,004
CN,004073,CORTEMILIA,CORTEMILIA,,NO,D062,44.5808537,8.1918668,24.9875,004
CN,004074,COSSANO BELBO,COSSANO BELBO,,NO,D093,44.6690571,8.1985593,20.5401,004
CN,004075,COSTIGLIOLE SALUZZO,COSTIGLIOLE SALUZZO,,NO,D120,44.5646044,7.4849377,15.3423,004
CN,004076,CRAVANZANA,CRAVANZANA,,NO,D133,44.5731475,8.1281897,8.1183,004
CN,004077,CRISSOLO,CRISSOLO,,NO,D172,44.6990970,7.1571897,52.0529,004
CN,004078,CUNEO,CUNEO,,SI,D205,44.3932857,7.5511719,119.6690,004
CN,004079,DEMONTE,DEMONTE,,NO,D271,44.3152499,7.2975134,127.3063,004
CN,004080,DIANO D'ALBA,DIANO D'ALBA,,NO,D291,44.6513852,8.0276690,17.5432,004
CN,004081,DOGLIANI,DOGLIANI,,NO,D314,44.5300819,7.9451674,35.6828,004
CN,004082,DRONERO,DRONERO,,NO,D372,44.4669688,7.3633182,58.9575,004
CN,004083,ELVA,ELVA,,NO,D401,44.5397567,7.0896342,26.2196,004
CN,004084,ENTRACQUE,ENTRACQUE,,NO,D410,44.2407441,7.3978031,160.7314,004
CN,004085,ENVIE,ENVIE,,NO,D412,44.6817468,7.3721924,24.9305,004
CN,004086,FARIGLIANO,FARIGLIANO,,NO,D499,44.5116901,7.9170210,16.4417,004
CN,004087,FAULE,FAULE,,NO,D511,44.8054219,7.5806638,7.0298,004
CN,004088,FEISOGLIO,FEISOGLIO,,NO,D523,44.5433513,8.1041760,7.6666,004
CN,004089,FOSSANO,FOSSANO,,NO,D742,44.5493897,7.7248703,130.1431,004
CN,004090,FRABOSA SOPRANA,FRABOSA SOPRANA,,NO,D751,44.2874616,7.8070923,47.1437,004
CN,004091,FRABOSA SOTTANA,FRABOSA SOTTANA,,NO,D752,44.3020134,7.7983106,37.6433,004
CN,004092,FRASSINO,FRASSINO,,NO,D782,44.5713491,7.2756444,17.0106,004
CN,004093,GAIOLA,GAIOLA,,NO,D856,44.3352361,7.4067619,4.9691,004
CN,004094,GAMBASCA,GAMBASCA,,NO,D894,44.6293666,7.3474145,5.7412,004
CN,004095,GARESSIO,GARESSIO,,NO,D920,44.1972793,8.0298843,131.2811,004
CN,004096,GENOLA,GENOLA,,NO,D967,44.5876841,7.6627261,13.7225,004
CN,004097,GORZEGNO,GORZEGNO,,NO,E111,44.5118511,8.1351176,13.9699,004
CN,004098,GOTTASECCA,GOTTASECCA,,NO,E115,44.4616859,8.1672527,13.6769,004
CN,004099,GOVONE,GOVONE,,NO,E118,44.8048552,8.0999574,18.9106,004
CN,004100,GRINZANE CAVOUR,GRINZANE CAVOUR,,NO,E182,44.6565312,7.9822138,3.8082,004
CN,004101,GUARENE,GUARENE,,NO,E251,44.7377989,8.0336748,13.4460,004
CN,004102,IGLIANO,IGLIANO,,NO,E282,44.4435230,8.0125036,3.4042,004
CN,004103,ISASCA,ISASCA,,NO,E327,44.5872868,7.3815478,5.0784,004
CN,004104,LAGNASCO,LAGNASCO,,NO,E406,44.6246535,7.5553373,17.7123,004
CN,004105,LA MORRA,LA MORRA,,NO,E430,44.6373388,7.9334641,24.1658,004
CN,004106,LEQUIO BERRIA,LEQUIO BERRIA,,NO,E540,44.6045975,8.0976718,11.8291,004
CN,004107,LEQUIO TANARO,LEQUIO TANARO,,NO,E539,44.5602244,7.8835990,12.2005,004
CN,004108,LESEGNO,LESEGNO,,NO,E546,44.4012231,7.9665059,14.2197,004
CN,004109,LEVICE,LEVICE,,NO,E564,44.5376509,8.1566196,15.7390,004
CN,004110,LIMONE PIEMONTE,LIMONE PIEMONTE,,NO,E597,44.2012791,7.5760798,70.8103,004
CN,004111,LISIO,LISIO,,NO,E615,44.3066855,7.9796342,8.2287,004
CN,004112,MACRA,MACRA,,NO,E789,44.4998498,7.1792040,24.6562,004
CN,004113,MAGLIANO ALFIERI,MAGLIANO ALFIERI,,NO,E809,44.7664631,8.0678111,9.5002,004
CN,004114,MAGLIANO ALPI,MAGLIANO ALPI,,NO,E808,44.4580908,7.7995525,33.2204,004
CN,004115,MANGO,MANGO,,NO,E887,44.6846084,8.1503312,20.0309,004
CN,004116,MANTA,MANTA,,NO,E894,44.6143247,7.4862618,11.7345,004
CN,004117,MARENE,MARENE,,NO,E939,44.6614900,7.7291517,28.9870,004
CN,004118,MARGARITA,MARGARITA,,NO,E945,44.4026359,7.6868579,11.3762,004
CN,004119,MARMORA,MARMORA,,NO,E963,44.4574854,7.0944986,41.1258,004
CN,004120,MARSAGLIA,MARSAGLIA,,NO,E973,44.4521745,7.9829862,13.0258,004
CN,004121,MARTINIANA PO,MARTINIANA PO,,NO,E988,44.6264098,7.3663153,13.2806,004
CN,004122,MELLE,MELLE,,NO,F114,44.5620471,7.3205827,27.9057,004
CN,004123,MOIOLA,MOIOLA,,NO,F279,44.3196790,7.3888721,15.0682,004
CN,004124,MOMBARCARO,MOMBARCARO,,NO,F309,44.4677534,8.0850933,20.5111,004
CN,004125,MOMBASIGLIO,MOMBASIGLIO,,NO,F312,44.3633020,7.9699964,17.3495,004
CN,004126,MONASTERO DI VASCO,MONASTERO DI VASCO,,NO,F326,44.3401652,7.8227613,17.4382,004
CN,004127,MONASTEROLO CASOTTO,MONASTEROLO CASOTTO,,NO,F329,44.3308236,7.9411393,7.6797,004
CN,004128,MONASTEROLO DI SAVIGLIANO,MONASTEROLO DI SAVIGLIANO,,NO,F330,44.6863291,7.6207698,14.9114,004
CN,004129,MONCHIERO,MONCHIERO,,NO,F338,44.5730385,7.9181403,4.9903,004
CN,004130,MONDOVÌ,MONDOVÌ,,NO,F351,44.3871664,7.8198060,87.0516,004
CN,004131,MONESIGLIO,MONESIGLIO,,NO,F355,44.4648859,8.1163797,12.9330,004
CN,004132,MONFORTE D'ALBA,MONFORTE D'ALBA,,NO,F358,44.5823276,7.9684088,25.2744,004
CN,004133,MONTÀ,MONTÀ,,NO,F385,44.8130871,7.9600148,26.8196,004
CN,004134,MONTALDO DI MONDOVÌ,MONTALDO DI MONDOVÌ,,NO,F405,44.3194575,7.8658404,23.5797,004
CN,004135,MONTALDO ROERO,MONTALDO ROERO,,NO,F408,44.7685622,7.9244658,11.8402,004
CN,004136,MONTANERA,MONTANERA,,NO,F424,44.4619684,7.6655736,11.6271,004
CN,004137,MONTELUPO ALBESE,MONTELUPO ALBESE,,NO,F550,44.6230610,8.0463848,6.4303,004
CN,004138,MONTEMALE DI CUNEO,MONTEMALE DI CUNEO,,NO,F558,44.4376846,7.3728143,11.1041,004
CN,004139,MONTEROSSO GRANA,MONTEROSSO GRANA,,NO,F608,44.4088779,7.3239196,42.2210,004
CN,004140,MONTEU ROERO,MONTEU ROERO,,NO,F654,44.7802313,7.9308693,24.6997,004
CN,004141,MONTEZEMOLO,MONTEZEMOLO,,NO,F666,44.3782287,8.1414670,6.9363,004
CN,004142,MONTICELLO D'ALBA,MONTICELLO D'ALBA,,NO,F669,44.7182847,7.9410088,10.2359,004
CN,004143,MORETTA,MORETTA,,NO,F723,44.7639001,7.5369242,23.9929,004
CN,004144,MOROZZO,MOROZZO,,NO,F743,44.4230301,7.7104467,22.1919,004
CN,004145,MURAZZANO,MURAZZANO,,NO,F809,44.4737450,8.0188472,27.6758,004
CN,004146,MURELLO,MURELLO,,NO,F811,44.7529544,7.6009425,17.3282,004
CN,004147,NARZOLE,NARZOLE,,NO,F846,44.5941489,7.8705198,26.1824,004
CN,004148,NEIVE,NEIVE,,NO,F863,44.7263100,8.1154993,21.3027,004
CN,004149,NEVIGLIE,NEVIGLIE,,NO,F883,44.6921174,8.1159765,7.9261,004
CN,004150,NIELLA BELBO,NIELLA BELBO,,NO,F894,44.5132813,8.0791207,11.5183,004
CN,004151,NIELLA TANARO,NIELLA TANARO,,NO,F895,44.4148162,7.9213586,15.7070,004
CN,004152,NOVELLO,NOVELLO,,NO,F961,44.5871493,7.9276554,11.6853,004
CN,004153,NUCETTO,NUCETTO,,NO,F972,44.3393901,8.0589157,7.8083,004
CN,004154,ONCINO,ONCINO,,NO,G066,44.6764915,7.1902546,47.3588,004
CN,004155,ORMEA,ORMEA,,NO,G114,44.1485801,7.9106908,124.4931,004
CN,004156,OSTANA,OSTANA,,NO,G183,44.6922117,7.1884822,14.0874,004
CN,004157,PAESANA,PAESANA,,NO,G228,44.6854403,7.2765580,58.2695,004
CN,004158,PAGNO,PAGNO,,NO,G240,44.6137374,7.4299360,8.6798,004
CN,004159,PAMPARATO,PAMPARATO,,NO,G302,44.2771135,7.9138511,34.5116,004
CN,004160,PAROLDO,PAROLDO,,NO,G339,44.4316646,8.0713186,12.4249,004
CN,004161,PERLETTO,PERLETTO,,NO,G457,44.5989889,8.2140793,9.8934,004
CN,004162,PERLO,PERLO,,NO,G458,44.3330791,8.0836067,10.2156,004
CN,004163,PEVERAGNO,PEVERAGNO,,NO,G526,44.3300008,7.6171395,67.9187,004
CN,004164,PEZZOLO VALLE UZZONE,PEZZOLO VALLE UZZONE,,NO,G532,44.5392680,8.1941101,26.5694,004
CN,004165,PIANFEI,PIANFEI,,NO,G561,44.3704795,7.7097584,15.3102,004
CN,004166,PIASCO,PIASCO,,NO,G575,44.5685502,7.4574076,10.6214,004
CN,004167,PIETRAPORZIO,PIETRAPORZIO,,NO,G625,44.3440005,7.0319433,55.1857,004
CN,004168,PIOBESI D'ALBA,PIOBESI D'ALBA,,NO,G683,44.7349039,7.9785127,4.0348,004
CN,004169,PIOZZO,PIOZZO,,NO,G697,44.5157538,7.8924222,14.3043,004
CN,004170,POCAPAGLIA,POCAPAGLIA,,NO,G742,44.7194539,7.8871859,17.4774,004
CN,004171,POLONGHERA,POLONGHERA,,NO,G800,44.8033469,7.5960731,10.3146,004
CN,004172,PONTECHIANALE,PONTECHIANALE,,NO,G837,44.6219829,7.0283117,94.9229,004
CN,004173,PRADLEVES,PRADLEVES,,NO,G970,44.4185879,7.2820866,19.2934,004
CN,004174,PRAZZO,PRAZZO,,NO,H011,44.4830668,7.0554308,52.3851,004
CN,004175,PRIERO,PRIERO,,NO,H059,44.3766067,8.0924196,19.8132,004
CN,004176,PRIOCCA,PRIOCCA,,NO,H068,44.7913025,8.0627276,9.0304,004
CN,004177,PRIOLA,PRIOLA,,NO,H069,44.2459639,8.0224240,27.3754,004
CN,004178,PRUNETTO,PRUNETTO,,NO,H085,44.4894399,8.1443118,14.3615,004
CN,004179,RACCONIGI,RACCONIGI,,NO,H150,44.7678184,7.6759818,48.0558,004
CN,004180,REVELLO,REVELLO,,NO,H247,44.6546551,7.3890061,52.4701,004
CN,004181,RIFREDDO,RIFREDDO,,NO,H285,44.6504913,7.3490980,6.8436,004
CN,004182,RITTANA,RITTANA,,NO,H326,44.3505597,7.4006354,11.3520,004
CN,004183,ROASCHIA,ROASCHIA,,NO,H362,44.2701202,7.4561403,23.8367,004
CN,004184,ROASCIO,ROASCIO,,NO,H363,44.4171546,8.0225466,6.4212,004
CN,004185,ROBILANTE,ROBILANTE,,NO,H377,44.2942177,7.5111630,25.0038,004
CN,004186,ROBURENT,ROBURENT,,NO,H378,44.3049837,7.8902071,29.8104,004
CN,004187,ROCCABRUNA,ROCCABRUNA,,NO,H385,44.4762859,7.3407474,24.2988,004
CN,004188,ROCCA CIGLIÈ,ROCCA CIGLIÈ,,NO,H391,44.4440815,7.9511452,7.0151,004
CN,004189,ROCCA DE' BALDI,ROCCA DE' BALDI,,NO,H395,44.4301673,7.7456979,26.4023,004
CN,004190,ROCCAFORTE MONDOVÌ,ROCCAFORTE MONDOVÌ,,NO,H407,44.3184143,7.7458790,84.6107,004
CN,004191,ROCCASPARVERA,ROCCASPARVERA,,NO,H447,44.3416448,7.4413420,11.2406,004
CN,004192,ROCCAVIONE,ROCCAVIONE,,NO,H453,44.3143982,7.4812565,19.1492,004
CN,004193,ROCCHETTA BELBO,ROCCHETTA BELBO,,NO,H462,44.6371262,8.1752719,4.5077,004
CN,004194,RODDI,RODDI,,NO,H472,44.6784469,7.9761077,9.3529,004
CN,004195,RODDINO,RODDINO,,NO,H473,44.5741003,8.0187358,10.5849,004
CN,004196,RODELLO,RODELLO,,NO,H474,44.6306059,8.0593158,8.9004,004
CN,004197,ROSSANA,ROSSANA,,NO,H578,44.5424915,7.4326069,19.9166,004
CN,004198,RUFFIA,RUFFIA,,NO,H633,44.7072423,7.6024441,7.5091,004
CN,004199,SALE DELLE LANGHE,SALE DELLE LANGHE,,NO,H695,44.3970540,8.0834556,10.7295,004
CN,004200,SALE SAN GIOVANNI,SALE SAN GIOVANNI,,NO,H704,44.3993697,8.0786067,8.0460,004
CN,004201,SALICETO,SALICETO,,NO,H710,44.4132682,8.1667914,24.3255,004
CN,004202,SALMOUR,SALMOUR,,NO,H716,44.5781464,7.7921231,12.6961,004
CN,004203,SALUZZO,SALUZZO,,NO,H727,44.6470162,7.4908476,79.9307,004
CN,004204,SAMBUCO,SAMBUCO,,NO,H746,44.3373312,7.0778104,46.1391,004
CN,004205,SAMPEYRE,SAMPEYRE,,NO,H755,44.5793754,7.1888737,98.9068,004
CN,004206,SAN BENEDETTO BELBO,SAN BENEDETTO BELBO,,NO,H770,44.4898837,8.0578511,4.8454,004
CN,004207,SAN DAMIANO MACRA,SAN DAMIANO MACRA,,NO,H812,44.4884055,7.2563092,54.2617,004
CN,004208,SANFRÈ,SANFRÈ,,NO,H851,44.7521861,7.8035497,15.5040,004
CN,004209,SANFRONT,SANFRONT,,NO,H852,44.6458313,7.3202481,39.7089,004
CN,004210,SAN MICHELE MONDOVÌ,SAN MICHELE MONDOVÌ,,NO,I037,44.3765173,7.9082487,18.1120,004
CN,004211,SANT'ALBANO STURA,SANT'ALBANO STURA,,NO,I210,44.5099189,7.7210531,27.4543,004
CN,004212,SANTA VITTORIA D'ALBA,SANTA VITTORIA D'ALBA,,NO,I316,44.6965249,7.9331557,10.0759,004
CN,004213,SANTO STEFANO BELBO,SANTO STEFANO BELBO,,NO,I367,44.7074852,8.2310162,27.1837,004
CN,004214,SANTO STEFANO ROERO,SANTO STEFANO ROERO,,NO,I372,44.7888149,7.9399096,13.1141,004
CN,004215,SAVIGLIANO,SAVIGLIANO,,NO,I470,44.6480119,7.6574792,110.7878,004
CN,004216,SCAGNELLO,SCAGNELLO,,NO,I484,44.3322954,7.9867937,9.3878,004
CN,004217,SCARNAFIGI,SCARNAFIGI,,NO,I512,44.6817494,7.5669268,30.4980,004
CN,004218,SERRALUNGA D'ALBA,SERRALUNGA D'ALBA,,NO,I646,44.6092145,8.0006134,8.3908,004
CN,004219,SERRAVALLE LANGHE,SERRAVALLE LANGHE,,NO,I659,44.5609100,8.0576620,8.8995,004
CN,004220,SINIO,SINIO,,NO,I750,44.5994756,8.0215610,8.6011,004
CN,004221,SOMANO,SOMANO,,NO,I817,44.5358849,8.0114022,11.6849,004
CN,004222,SOMMARIVA DEL BOSCO,SOMMARIVA DEL BOSCO,,NO,I822,44.7712808,7.7842659,35.4153,004
CN,004223,SOMMARIVA PERNO,SOMMARIVA PERNO,,NO,I823,44.7431871,7.9055758,17.0936,004
CN,004224,STROPPO,STROPPO,,NO,I985,44.5056334,7.1259127,28.0957,004
CN,004225,TARANTASCA,TARANTASCA,,NO,L048,44.4934071,7.5450606,12.2017,004
CN,004226,TORRE BORMIDA,TORRE BORMIDA,,NO,L252,44.5630946,8.1556107,7.1828,004
CN,004227,TORRE MONDOVÌ,TORRE MONDOVÌ,,NO,L241,44.3520291,7.9003514,18.5376,004
CN,004228,TORRE SAN GIORGIO,TORRE SAN GIORGIO,,NO,L278,44.7358156,7.5299411,5.3900,004
CN,004229,TORRESINA,TORRESINA,,NO,L281,44.4321989,8.0347641,3.8226,004
CN,004230,TREISO,TREISO,,NO,L367,44.6893676,8.0868493,9.5956,004
CN,004231,TREZZO TINELLA,TREZZO TINELLA,,NO,L410,44.6769474,8.1075834,10.5253,004
CN,004232,TRINITÀ,TRINITÀ,,NO,L427,44.5074601,7.7580358,28.3367,004
CN,004233,VALDIERI,VALDIERI,,NO,L558,44.2776299,7.3961360,153.3126,004
CN,004234,VALGRANA,VALGRANA,,NO,L580,44.4095986,7.3806149,23.1017,004
CN,004235,VALLORIATE,VALLORIATE,,NO,L631,44.3381374,7.3745655,16.9560,004
CN,004237,VENASCA,VENASCA,,NO,L729,44.5625348,7.3949520,20.3938,004
CN,004238,VERDUNO,VERDUNO,,NO,L758,44.6681141,7.9337670,7.1571,004
CN,004239,VERNANTE,VERNANTE,,NO,L771,44.2455519,7.5337036,62.0563,004
CN,004240,VERZUOLO,VERZUOLO,,NO,L804,44.5995468,7.4831278,26.1320,004
CN,004241,VEZZA D'ALBA,VEZZA D'ALBA,,NO,L817,44.7638950,7.9960910,14.0688,004
CN,004242,VICOFORTE,VICOFORTE,,NO,L841,44.3749448,7.8649884,25.7363,004
CN,004243,VIGNOLO,VIGNOLO,,NO,L888,44.3595471,7.4698938,7.9416,004
CN,004244,VILLAFALLETTO,VILLAFALLETTO,,NO,L942,44.5442728,7.5388949,29.7322,004
CN,004245,VILLANOVA MONDOVÌ,VILLANOVA MONDOVÌ,,NO,L974,44.3444484,7.7620933,28.2878,004
CN,004246,VILLANOVA SOLARO,VILLANOVA SOLARO,,NO,L990,44.7296321,7.5760324,14.7885,004
CN,004247,VILLAR SAN COSTANZO,VILLAR SAN COSTANZO,,NO,M015,44.4829972,7.3802981,19.4958,004
CN,004248,VINADIO,VINADIO,,NO,M055,44.3070790,7.1743390,183.1693,004
CN,004249,VIOLA,VIOLA,,NO,M063,44.2904658,7.9662355,21.0671,004
CN,004250,VOTTIGNASCO,VOTTIGNASCO,,NO,M136,44.5648070,7.5782137,8.0901,004
AT,005001,AGLIANO TERME,AGLIANO TERME,,NO,A072,44.7907000,8.2511025,15.4485,005
AT,005002,ALBUGNANO,ALBUGNANO,,NO,A173,45.0780173,7.9715283,9.5399,005
AT,005003,ANTIGNANO,ANTIGNANO,,NO,A312,44.8454381,8.1337873,10.8608,005
AT,005004,ARAMENGO,ARAMENGO,,NO,A352,45.0997329,8.0019807,11.4123,005
AT,005005,ASTI,ASTI,,SI,A479,44.8991260,8.2041426,151.3147,005
AT,005006,AZZANO D'ASTI,AZZANO D'ASTI,,NO,A527,44.8746943,8.2676590,6.4341,005
AT,005007,BALDICHIERI D'ASTI,BALDICHIERI D'ASTI,,NO,A588,44.9069940,8.0911038,5.0628,005
AT,005008,BELVEGLIO,BELVEGLIO,,NO,A770,44.8304829,8.3301043,5.2796,005
AT,005009,BERZANO DI SAN PIETRO,BERZANO DI SAN PIETRO,,NO,A812,45.0949077,7.9540495,7.3426,005
AT,005010,BRUNO,BRUNO,,NO,B221,44.7906280,8.4402729,8.9007,005
AT,005011,BUBBIO,BUBBIO,,NO,B236,44.6638362,8.2936090,15.7622,005
AT,005012,BUTTIGLIERA D'ASTI,BUTTIGLIERA D'ASTI,,NO,B306,45.0225449,7.9505128,19.1603,005
AT,005013,CALAMANDRANA,CALAMANDRANA,,NO,B376,44.7365437,8.3356275,12.7887,005
AT,005014,CALLIANO MONFERRATO,CALLIANO MONFERRATO,,NO,B418,45.0062598,8.2573264,17.2930,005
AT,005015,CALOSSO,CALOSSO,,NO,B425,44.7394711,8.2271856,15.7151,005
AT,005016,CAMERANO CASASCO,CAMERANO CASASCO,,NO,B469,44.9886577,8.0908805,6.8876,005
AT,005017,CANELLI,CANELLI,,NO,B594,44.7198729,8.2882031,23.4325,005
AT,005018,CANTARANA,CANTARANA,,NO,B633,44.9003807,8.0307246,9.7297,005
AT,005019,CAPRIGLIO,CAPRIGLIO,,NO,B707,45.0042278,8.0081642,5.0565,005
AT,005020,CASORZO MONFERRATO,CASORZO MONFERRATO,,NO,B991,45.0228160,8.3341398,12.6482,005
AT,005021,CASSINASCO,CASSINASCO,,NO,C022,44.6886322,8.3016610,11.8390,005
AT,005022,CASTAGNOLE DELLE LANZE,CASTAGNOLE DELLE LANZE,,NO,C049,44.7549126,8.1491783,21.5649,005
AT,005023,CASTAGNOLE MONFERRATO,CASTAGNOLE MONFERRATO,,NO,C047,44.9614416,8.3060920,17.3373,005
AT,005024,CASTEL BOGLIONE,CASTEL BOGLIONE,,NO,C064,44.7206138,8.3811957,11.8616,005
AT,005025,CASTELL'ALFERO,CASTELL'ALFERO,,NO,C127,44.9827081,8.2094452,20.0884,005
AT,005026,CASTELLERO,CASTELLERO,,NO,C154,44.9240028,8.0747486,4.2882,005
AT,005027,CASTELLETTO MOLINA,CASTELLETTO MOLINA,,NO,C161,44.7503030,8.4328345,3.0656,005
AT,005028,CASTELLO DI ANNONE,CASTELLO DI ANNONE,,NO,A300,44.8787617,8.3136895,23.1639,005
AT,005029,CASTELNUOVO BELBO,CASTELNUOVO BELBO,,NO,C226,44.8018094,8.4122613,9.5499,005
AT,005030,CASTELNUOVO CALCEA,CASTELNUOVO CALCEA,,NO,C230,44.7882102,8.2856362,8.2040,005
AT,005031,CASTELNUOVO DON BOSCO,CASTELNUOVO DON BOSCO,,NO,C232,45.0413409,7.9636245,21.6065,005
AT,005032,CASTEL ROCCHERO,CASTEL ROCCHERO,,NO,C253,44.7187915,8.4159658,5.6277,005
AT,005033,CELLARENGO,CELLARENGO,,NO,C438,44.8659930,7.9450011,10.8477,005
AT,005034,CELLE ENOMONDO,CELLE ENOMONDO,,NO,C440,44.8566295,8.1229731,5.5928,005
AT,005035,CERRETO D'ASTI,CERRETO D'ASTI,,NO,C528,45.0497678,8.0367647,3.9385,005
AT,005036,CERRO TANARO,CERRO TANARO,,NO,C533,44.8726668,8.3602087,4.6674,005
AT,005037,CESSOLE,CESSOLE,,NO,C583,44.6479857,8.2432015,11.7778,005
AT,005038,CHIUSANO D'ASTI,CHIUSANO D'ASTI,,NO,C658,44.9850527,8.1178076,2.4171,005
AT,005039,CINAGLIO,CINAGLIO,,NO,C701,44.9748418,8.1001665,5.5045,005
AT,005040,CISTERNA D'ASTI,CISTERNA D'ASTI,,NO,C739,44.8261717,8.0048210,10.7326,005
AT,005041,COAZZOLO,COAZZOLO,,NO,C804,44.7282092,8.1451412,4.0491,005
AT,005042,COCCONATO,COCCONATO,,NO,C807,45.0871815,8.0392394,16.5225,005
AT,005044,CORSIONE,CORSIONE,,NO,D046,45.0007454,8.1451364,5.0824,005
AT,005045,CORTANDONE,CORTANDONE,,NO,D050,44.9596886,8.0575712,5.0231,005
AT,005046,CORTANZE,CORTANZE,,NO,D051,45.0152236,8.0895934,4.4766,005
AT,005047,CORTAZZONE,CORTAZZONE,,NO,D052,44.9795332,8.0619238,10.3220,005
AT,005048,CORTIGLIONE,CORTIGLIONE,,NO,D072,44.8230145,8.3585651,8.4253,005
AT,005049,COSSOMBRATO,COSSOMBRATO,,NO,D101,44.9941207,8.1375273,5.3987,005
AT,005050,COSTIGLIOLE D'ASTI,COSTIGLIOLE D'ASTI,,NO,D119,44.7882167,8.1806280,36.9431,005
AT,005051,CUNICO,CUNICO,,NO,D207,45.0404348,8.0972115,6.7531,005
AT,005052,DUSINO SAN MICHELE,DUSINO SAN MICHELE,,NO,D388,44.9201841,7.9722814,11.9251,005
AT,005053,FERRERE,FERRERE,,NO,D554,44.8734007,7.9938552,13.9271,005
AT,005054,FONTANILE,FONTANILE,,NO,D678,44.7533737,8.4221857,8.1176,005
AT,005055,FRINCO,FRINCO,,NO,D802,45.0055853,8.1753657,7.2168,005
AT,005056,GRANA MONFERRATO,GRANA MONFERRATO,,NO,E134,44.9980498,8.2991228,5.8883,005
AT,005057,GRAZZANO BADOGLIO,GRAZZANO BADOGLIO,,NO,E159,45.0389144,8.3135570,10.4722,005
AT,005058,INCISA SCAPACCINO,INCISA SCAPACCINO,,NO,E295,44.8083938,8.3809458,20.7037,005
AT,005059,ISOLA D'ASTI,ISOLA D'ASTI,,NO,E338,44.8294713,8.1772147,13.5026,005
AT,005060,LOAZZOLO,LOAZZOLO,,NO,E633,44.6689613,8.2585255,14.8216,005
AT,005061,MARANZANA,MARANZANA,,NO,E917,44.7597653,8.4768203,4.3423,005
AT,005062,MARETTO,MARETTO,,NO,E944,44.9443539,8.0342359,4.9286,005
AT,005063,MOASCA,MOASCA,,NO,F254,44.7625450,8.2779396,4.1551,005
AT,005064,MOMBALDONE,MOMBALDONE,,NO,F308,44.5692293,8.3292041,11.9591,005
AT,005065,MOMBARUZZO,MOMBARUZZO,,NO,F311,44.7710213,8.4486667,22.4302,005
AT,005066,MOMBERCELLI,MOMBERCELLI,,NO,F316,44.8169714,8.2944274,14.2321,005
AT,005067,MONALE,MONALE,,NO,F323,44.9360941,8.0716409,9.1104,005
AT,005068,MONASTERO BORMIDA,MONASTERO BORMIDA,,NO,F325,44.6475161,8.3246203,14.2062,005
AT,005069,MONCALVO,MONCALVO,,NO,F336,45.0513987,8.2634659,17.4206,005
AT,005070,MONCUCCO TORINESE,MONCUCCO TORINESE,,NO,F343,45.0678824,7.9321561,14.3288,005
AT,005071,MONGARDINO,MONGARDINO,,NO,F361,44.8488395,8.2186989,6.8551,005
AT,005072,MONTABONE,MONTABONE,,NO,F386,44.6985955,8.3903099,8.5377,005
AT,005073,MONTAFIA,MONTAFIA,,NO,F390,44.9891936,8.0251525,14.4970,005
AT,005074,MONTALDO SCARAMPI,MONTALDO SCARAMPI,,NO,F409,44.8285962,8.2573903,6.6348,005
AT,005075,MONTECHIARO D'ASTI,MONTECHIARO D'ASTI,,NO,F468,45.0082137,8.1123822,10.1408,005
AT,005076,MONTEGROSSO D'ASTI,MONTEGROSSO D'ASTI,,NO,F527,44.8224078,8.2387429,15.4191,005
AT,005077,MONTEMAGNO MONFERRATO,MONTEMAGNO MONFERRATO,,NO,F556,44.9840328,8.3240069,16.0975,005
AT,005080,NIZZA MONFERRATO,NIZZA MONFERRATO,,NO,F902,44.7736140,8.3565029,30.3635,005
AT,005081,OLMO GENTILE,OLMO GENTILE,,NO,G048,44.5855501,8.2470350,5.6168,005
AT,005082,PASSERANO MARMORITO,PASSERANO MARMORITO,,NO,G358,45.0563933,8.0187926,12.0261,005
AT,005083,PENANGO,PENANGO,,NO,G430,45.0332578,8.2501324,9.5629,005
AT,005084,PIEA,PIEA,,NO,G593,45.0252897,8.0720897,9.0013,005
AT,005085,PINO D'ASTI,PINO D'ASTI,,NO,G676,45.0581925,7.9862550,4.0821,005
AT,005086,PIOVÀ MASSAIA,PIOVÀ MASSAIA,,NO,G692,45.0544849,8.0509446,11.0243,005
AT,005087,PORTACOMARO,PORTACOMARO,,NO,G894,44.9571107,8.2585123,10.9995,005
AT,005088,QUARANTI,QUARANTI,,NO,H102,44.7510416,8.4490793,2.8707,005
AT,005089,REFRANCORE,REFRANCORE,,NO,H219,44.9375746,8.3427129,13.2054,005
AT,005090,REVIGLIASCO D'ASTI,REVIGLIASCO D'ASTI,,NO,H250,44.8587289,8.1583649,8.8350,005
AT,005091,ROATTO,ROATTO,,NO,H366,44.9514989,8.0266129,6.4135,005
AT,005092,ROBELLA,ROBELLA,,NO,H376,45.1023322,8.1000560,12.1823,005
AT,005093,ROCCA D'ARAZZO,ROCCA D'ARAZZO,,NO,H392,44.8738739,8.2858155,12.5632,005
AT,005094,ROCCAVERANO,ROCCAVERANO,,NO,H451,44.5929831,8.2719314,29.9829,005
AT,005095,ROCCHETTA PALAFEA,ROCCHETTA PALAFEA,,NO,H466,44.7069446,8.3457240,7.8379,005
AT,005096,ROCCHETTA TANARO,ROCCHETTA TANARO,,NO,H468,44.8588644,8.3443271,15.9110,005
AT,005097,SAN DAMIANO D'ASTI,SAN DAMIANO D'ASTI,,NO,H811,44.8346357,8.0652310,47.8661,005
AT,005098,SAN GIORGIO SCARAMPI,SAN GIORGIO SCARAMPI,,NO,H899,44.6113127,8.2420238,6.1477,005
AT,005099,SAN MARTINO ALFIERI,SAN MARTINO ALFIERI,,NO,H987,44.8185157,8.1093710,7.2095,005
AT,005100,SAN MARZANO OLIVETO,SAN MARZANO OLIVETO,,NO,I017,44.7532191,8.2961627,9.6838,005
AT,005101,SAN PAOLO SOLBRITO,SAN PAOLO SOLBRITO,,NO,I076,44.9522670,7.9727807,11.8690,005
AT,005103,SCURZOLENGO,SCURZOLENGO,,NO,I555,44.9657062,8.2782601,5.3426,005
AT,005104,SEROLE,SEROLE,,NO,I637,44.5537462,8.2597238,12.3286,005
AT,005105,SESSAME,SESSAME,,NO,I678,44.6689341,8.3378293,8.4474,005
AT,005106,SETTIME,SETTIME,,NO,I698,44.9640872,8.1128920,6.6806,005
AT,005107,SOGLIO,SOGLIO,,NO,I781,44.9974294,8.0781248,3.2847,005
AT,005108,TIGLIOLE,TIGLIOLE,,NO,L168,44.8872714,8.0754687,16.1208,005
AT,005109,TONCO,TONCO,,NO,L203,45.0241068,8.1898420,11.7831,005
AT,005111,VAGLIO SERRA,VAGLIO SERRA,,NO,L531,44.7965310,8.3389334,4.7598,005
AT,005112,VALFENERA,VALFENERA,,NO,L574,44.8968709,7.9650986,22.0381,005
AT,005113,VESIME,VESIME,,NO,L807,44.6371886,8.2282253,13.1652,005
AT,005114,VIALE,VIALE,,NO,L829,44.9992683,8.0522905,3.9865,005
AT,005115,VIARIGI,VIARIGI,,NO,L834,44.9804490,8.3586906,13.6222,005
AT,005116,VIGLIANO D'ASTI,VIGLIANO D'ASTI,,NO,L879,44.8351010,8.2318906,6.6529,005
AT,005117,VILLAFRANCA D'ASTI,VILLAFRANCA D'ASTI,,NO,L945,44.9136684,8.0322123,12.8715,005
AT,005118,VILLANOVA D'ASTI,VILLANOVA D'ASTI,,NO,L984,44.9418872,7.9372218,41.9470,005
AT,005119,VILLA SAN SECONDO,VILLA SAN SECONDO,,NO,M019,45.0051825,8.1352553,6.1268,005
AT,005120,VINCHIO,VINCHIO,,NO,M058,44.8074021,8.3173016,9.2863,005
AT,005121,MONTIGLIO MONFERRATO,MONTIGLIO MONFERRATO,,NO,M302,45.0674124,8.0977382,26.8627,005
AT,005122,MORANSENGO-TONENGO,MORANSENGO-TONENGO,,NO,M434,45.1183412,8.0164395,11.0003,005
AL,006001,ACQUI TERME,ACQUI TERME,,NO,A052,44.6766013,8.4697522,33.2966,006
AL,006002,ALBERA LIGURE,ALBERA LIGURE,,NO,A146,44.7009104,9.0684268,21.2298,006
AL,006003,ALESSANDRIA,ALESSANDRIA,,SI,A182,44.9129705,8.6154012,203.7210,006
AL,006004,ALFIANO NATTA,ALFIANO NATTA,,NO,A189,45.0472315,8.2084598,13.1593,006
AL,006005,ALICE BEL COLLE,ALICE BEL COLLE,,NO,A197,44.7257823,8.4512007,12.2127,006
AL,006007,ALTAVILLA MONFERRATO,ALTAVILLA MONFERRATO,,NO,A227,44.9928977,8.3757125,11.3278,006
AL,006008,ALZANO SCRIVIA,ALZANO SCRIVIA,,NO,A245,45.0175545,8.8812870,2.1270,006
AL,006009,ARQUATA SCRIVIA,ARQUATA SCRIVIA,,NO,A436,44.6867333,8.8857447,29.2435,006
AL,006010,AVOLASCA,AVOLASCA,,NO,A523,44.8029645,8.9652382,12.2375,006
AL,006011,BALZOLA,BALZOLA,,NO,A605,45.1831971,8.4025470,16.6194,006
AL,006012,BASALUZZO,BASALUZZO,,NO,A689,44.7682890,8.7059341,15.0526,006
AL,006013,BASSIGNANA,BASSIGNANA,,NO,A708,45.0032111,8.7359431,28.7123,006
AL,006014,BELFORTE MONFERRATO,BELFORTE MONFERRATO,,NO,A738,44.6243621,8.6616036,8.3258,006
AL,006015,BERGAMASCO,BERGAMASCO,,NO,A793,44.8271011,8.4552104,13.4394,006
AL,006016,BERZANO DI TORTONA,BERZANO DI TORTONA,,NO,A813,44.8764534,8.9505959,2.8874,006
AL,006017,BISTAGNO,BISTAGNO,,NO,A889,44.6617871,8.3685867,17.5930,006
AL,006018,BORGHETTO DI BORBERA,BORGHETTO DI BORBERA,,NO,A998,44.7310474,8.9453502,39.3975,006
AL,006019,BORGORATTO ALESSANDRINO,BORGORATTO ALESSANDRINO,,NO,B029,44.8364862,8.5394206,6.6034,006
AL,006020,BORGO SAN MARTINO,BORGO SAN MARTINO,,NO,B037,45.0890899,8.5236214,9.7357,006
AL,006021,BOSCO MARENGO,BOSCO MARENGO,,NO,B071,44.8220868,8.6759910,44.5880,006
AL,006022,BOSIO,BOSIO,,NO,B080,44.6477824,8.7919125,67.6141,006
AL,006023,BOZZOLE,BOZZOLE,,NO,B109,45.0678753,8.6048772,9.0237,006
AL,006024,BRIGNANO-FRASCATA,BRIGNANO-FRASCATA,,NO,B179,44.8119469,9.0407960,17.5285,006
AL,006025,CABELLA LIGURE,CABELLA LIGURE,,NO,B311,44.6730762,9.0962927,46.6333,006
AL,006026,CAMAGNA MONFERRATO,CAMAGNA MONFERRATO,,NO,B453,45.0178457,8.4303369,9.2494,006
AL,006027,CAMINO,CAMINO,,NO,B482,45.1622096,8.2870447,18.4375,006
AL,006028,CANTALUPO LIGURE,CANTALUPO LIGURE,,NO,B629,44.7189679,9.0443591,24.0617,006
AL,006029,CAPRIATA D'ORBA,CAPRIATA D'ORBA,,NO,B701,44.7299603,8.6889378,28.4663,006
AL,006030,CARBONARA SCRIVIA,CARBONARA SCRIVIA,,NO,B736,44.8497637,8.8707753,5.0525,006
AL,006031,CARENTINO,CARENTINO,,NO,B765,44.8288725,8.4704697,9.7893,006
AL,006032,CAREZZANO,CAREZZANO,,NO,B769,44.8067495,8.9000082,10.4834,006
AL,006033,CARPENETO,CARPENETO,,NO,B818,44.6772490,8.6063158,13.3393,006
AL,006034,CARREGA LIGURE,CARREGA LIGURE,,NO,B836,44.6190667,9.1756124,55.2555,006
AL,006035,CARROSIO,CARROSIO,,NO,B840,44.6593983,8.8323311,6.9234,006
AL,006036,CARTOSIO,CARTOSIO,,NO,B847,44.5911938,8.4185292,16.3413,006
AL,006037,CASAL CERMELLI,CASAL CERMELLI,,NO,B870,44.8357007,8.6224245,11.9646,006
AL,006038,CASALEGGIO BOIRO,CASALEGGIO BOIRO,,NO,B882,44.6342933,8.7316846,12.0105,006
AL,006039,CASALE MONFERRATO,CASALE MONFERRATO,,NO,B885,45.1350280,8.4526060,86.2099,006
AL,006040,CASALNOCETO,CASALNOCETO,,NO,B902,44.9131601,8.9819855,12.9868,006
AL,006041,CASASCO,CASASCO,,NO,B941,44.8282217,9.0060511,9.0373,006
AL,006043,CASSINE,CASSINE,,NO,C027,44.7482100,8.5254830,33.0924,006
AL,006044,CASSINELLE,CASSINELLE,,NO,C030,44.6068391,8.5604746,23.7720,006
AL,006045,CASTELLANIA COPPI,CASTELLANIA COPPI,,NO,C137,44.7988419,8.9304523,7.2090,006
AL,006046,CASTELLAR GUIDOBONO,CASTELLAR GUIDOBONO,,NO,C142,44.9062642,8.9467351,2.4829,006
AL,006047,CASTELLAZZO BORMIDA,CASTELLAZZO BORMIDA,,NO,C148,44.8454696,8.5771165,45.1281,006
AL,006048,CASTELLETTO D'ERRO,CASTELLETTO D'ERRO,,NO,C156,44.6250784,8.3944110,4.6600,006
AL,006049,CASTELLETTO D'ORBA,CASTELLETTO D'ORBA,,NO,C158,44.6855620,8.7022553,13.9770,006
AL,006050,CASTELLETTO MERLI,CASTELLETTO MERLI,,NO,C160,45.0752003,8.2405562,11.5910,006
AL,006051,CASTELLETTO MONFERRATO,CASTELLETTO MONFERRATO,,NO,C162,44.9798675,8.5662417,9.5776,006
AL,006052,CASTELNUOVO BORMIDA,CASTELNUOVO BORMIDA,,NO,C229,44.7436825,8.5462034,13.1106,006
AL,006053,CASTELNUOVO SCRIVIA,CASTELNUOVO SCRIVIA,,NO,C243,44.9794221,8.8816324,45.4215,006
AL,006054,CASTELSPINA,CASTELSPINA,,NO,C274,44.8044664,8.5824154,5.4872,006
AL,006055,CAVATORE,CAVATORE,,NO,C387,44.6309548,8.4524130,10.4466,006
AL,006056,CELLA MONTE,CELLA MONTE,,NO,C432,45.0748007,8.3906872,5.5526,006
AL,006057,CERESETO,CERESETO,,NO,C503,45.0860104,8.3169408,10.4427,006
AL,006058,CERRETO GRUE,CERRETO GRUE,,NO,C507,44.8418594,8.9319766,4.7470,006
AL,006059,CERRINA MONFERRATO,CERRINA MONFERRATO,,NO,C531,45.1201920,8.2152477,17.3008,006
AL,006060,CONIOLO,CONIOLO,,NO,C962,45.1469086,8.3720472,10.2961,006
AL,006061,CONZANO,CONZANO,,NO,C977,45.0205408,8.4560585,11.6115,006
AL,006062,COSTA VESCOVATO,COSTA VESCOVATO,,NO,D102,44.8182014,8.9290162,7.8996,006
AL,006063,CREMOLINO,CREMOLINO,,NO,D149,44.6374906,8.5858399,14.3874,006
AL,006065,DENICE,DENICE,,NO,D272,44.5986572,8.3340115,7.4620,006
AL,006066,DERNICE,DERNICE,,NO,D277,44.7675981,9.0500793,18.2764,006
AL,006067,FABBRICA CURONE,FABBRICA CURONE,,NO,D447,44.7548201,9.1541822,53.8486,006
AL,006068,FELIZZANO,FELIZZANO,,NO,D528,44.8980397,8.4358029,25.0136,006
AL,006069,FRACONALTO,FRACONALTO,,NO,D559,44.5921496,8.8779599,17.6162,006
AL,006070,FRANCAVILLA BISIO,FRANCAVILLA BISIO,,NO,D759,44.7358845,8.7316590,7.7515,006
AL,006071,FRASCARO,FRASCARO,,NO,D770,44.8271093,8.5326506,5.2861,006
AL,006072,FRASSINELLO MONFERRATO,FRASSINELLO MONFERRATO,,NO,D777,45.0315078,8.3866096,8.4310,006
AL,006073,FRASSINETO PO,FRASSINETO PO,,NO,D780,45.1340187,8.5361033,29.4598,006
AL,006074,FRESONARA,FRESONARA,,NO,D797,44.7827316,8.6848407,6.9336,006
AL,006075,FRUGAROLO,FRUGAROLO,,NO,D813,44.8389822,8.6790623,27.0431,006
AL,006076,FUBINE MONFERRATO,FUBINE MONFERRATO,,NO,D814,44.9655624,8.4254127,25.5337,006
AL,006077,GABIANO,GABIANO,,NO,D835,45.1589402,8.1931504,17.7683,006
AL,006078,GAMALERO,GAMALERO,,NO,D890,44.8089199,8.5430521,12.1544,006
AL,006079,GARBAGNA,GARBAGNA,,NO,D910,44.7809357,8.9990357,20.7166,006
AL,006081,GAVI,GAVI,,NO,D944,44.6882933,8.8036063,45.0432,006
AL,006082,GIAROLE,GIAROLE,,NO,E015,45.0606540,8.5678570,5.4494,006
AL,006083,GREMIASCO,GREMIASCO,,NO,E164,44.7970425,9.1047386,17.3843,006
AL,006084,GROGNARDO,GROGNARDO,,NO,E188,44.6299278,8.4915067,9.0802,006
AL,006085,GRONDONA,GRONDONA,,NO,E191,44.6971918,8.9625408,25.9430,006
AL,006086,GUAZZORA,GUAZZORA,,NO,E255,45.0135967,8.8449106,2.8022,006
AL,006087,ISOLA SANT'ANTONIO,ISOLA SANT'ANTONIO,,NO,E360,45.0308725,8.8504086,23.5481,006
AL,006088,LERMA,LERMA,,NO,E543,44.6349675,8.7125166,14.5357,006
AL,006090,MALVICINO,MALVICINO,,NO,E870,44.5596507,8.4140666,9.0350,006
AL,006091,MASIO,MASIO,,NO,F015,44.8693908,8.4080110,22.2320,006
AL,006092,MELAZZO,MELAZZO,,NO,F096,44.6439852,8.4269029,19.7374,006
AL,006093,MERANA,MERANA,,NO,F131,44.5177880,8.2975246,9.1997,006
AL,006094,MIRABELLO MONFERRATO,MIRABELLO MONFERRATO,,NO,F232,45.0357457,8.5234501,13.2358,006
AL,006095,MOLARE,MOLARE,,NO,F281,44.6206141,8.6010831,32.5044,006
AL,006096,MOLINO DEI TORTI,MOLINO DEI TORTI,,NO,F293,45.0235405,8.8920305,2.7529,006
AL,006097,MOMBELLO MONFERRATO,MOMBELLO MONFERRATO,,NO,F313,45.1330294,8.2508837,19.6940,006
AL,006098,MOMPERONE,MOMPERONE,,NO,F320,44.8386375,9.0344792,8.5400,006
AL,006099,MONCESTINO,MONCESTINO,,NO,F337,45.1548520,8.1584003,6.5183,006
AL,006100,MONGIARDINO LIGURE,MONGIARDINO LIGURE,,NO,F365,44.6385514,9.0612632,29.0329,006
AL,006101,MONLEALE,MONLEALE,,NO,F374,44.8850715,8.9843698,9.6176,006
AL,006102,MONTACUTO,MONTACUTO,,NO,F387,44.7667481,9.1068749,23.7473,006
AL,006103,MONTALDEO,MONTALDEO,,NO,F403,44.6665306,8.7306833,5.3757,006
AL,006104,MONTALDO BORMIDA,MONTALDO BORMIDA,,NO,F404,44.6834491,8.5890058,5.7240,006
AL,006105,MONTECASTELLO,MONTECASTELLO,,NO,F455,44.9489477,8.6866065,7.4868,006
AL,006106,MONTECHIARO D'ACQUI,MONTECHIARO D'ACQUI,,NO,F469,44.5949771,8.3796734,17.5981,006
AL,006107,MONTEGIOCO,MONTEGIOCO,,NO,F518,44.8377939,8.9540834,5.4513,006
AL,006108,MONTEMARZINO,MONTEMARZINO,,NO,F562,44.8484822,8.9931314,9.8515,006
AL,006109,MORANO SUL PO,MORANO SUL PO,,NO,F707,45.1640395,8.3656208,17.7090,006
AL,006110,MORBELLO,MORBELLO,,NO,F713,44.6034699,8.5100103,23.9524,006
AL,006111,MORNESE,MORNESE,,NO,F737,44.6390754,8.7561914,13.2196,006
AL,006112,MORSASCO,MORSASCO,,NO,F751,44.6645589,8.5490960,10.2943,006
AL,006113,MURISENGO,MURISENGO,,NO,F814,45.0834471,8.1374660,15.3099,006
AL,006114,NOVI LIGURE,NOVI LIGURE,,NO,F965,44.7601792,8.7870990,55.1949,006
AL,006115,OCCIMIANO,OCCIMIANO,,NO,F995,45.0601772,8.5066555,22.4629,006
AL,006116,ODALENGO GRANDE,ODALENGO GRANDE,,NO,F997,45.1095224,8.1667216,15.5460,006
AL,006117,ODALENGO PICCOLO,ODALENGO PICCOLO,,NO,F998,45.0719277,8.2095151,7.5707,006
AL,006118,OLIVOLA,OLIVOLA,,NO,G042,45.0376938,8.3669623,2.6908,006
AL,006119,ORSARA BORMIDA,ORSARA BORMIDA,,NO,G124,44.6900822,8.5624365,5.0996,006
AL,006120,OTTIGLIO,OTTIGLIO,,NO,G193,45.0518339,8.3391467,14.5434,006
AL,006121,OVADA,OVADA,,NO,G197,44.6374608,8.6463870,35.3721,006
AL,006122,OVIGLIO,OVIGLIO,,NO,G199,44.8598003,8.4867247,27.3668,006
AL,006123,OZZANO MONFERRATO,OZZANO MONFERRATO,,NO,G204,45.1018934,8.3762262,15.1836,006
AL,006124,PADERNA,PADERNA,,NO,G215,44.8207217,8.8900021,4.4198,006
AL,006125,PARETO,PARETO,,NO,G334,44.5157343,8.3828668,41.7377,006
AL,006126,PARODI LIGURE,PARODI LIGURE,,NO,G338,44.6708171,8.7586180,12.5365,006
AL,006127,PASTURANA,PASTURANA,,NO,G367,44.7506725,8.7490384,5.2811,006
AL,006128,PECETTO DI VALENZA,PECETTO DI VALENZA,,NO,G397,44.9897155,8.6704681,11.3546,006
AL,006129,PIETRA MARAZZI,PIETRA MARAZZI,,NO,G619,44.9441397,8.6705542,7.9973,006
AL,006131,POMARO MONFERRATO,POMARO MONFERRATO,,NO,G807,45.0639175,8.5951919,13.4426,006
AL,006132,PONTECURONE,PONTECURONE,,NO,G839,44.9588391,8.9359378,29.7043,006
AL,006133,PONTESTURA,PONTESTURA,,NO,G858,45.1436421,8.3325409,18.9178,006
AL,006134,PONTI,PONTI,,NO,G861,44.6274099,8.3652335,11.9675,006
AL,006135,PONZANO MONFERRATO,PONZANO MONFERRATO,,NO,G872,45.0844601,8.2662183,11.6498,006
AL,006136,PONZONE,PONZONE,,NO,G877,44.5863981,8.4596074,69.0285,006
AL,006137,POZZOL GROPPO,POZZOL GROPPO,,NO,G960,44.8774560,9.0293141,14.0867,006
AL,006138,POZZOLO FORMIGARO,POZZOLO FORMIGARO,,NO,G961,44.7938650,8.7815464,36.1764,006
AL,006139,PRASCO,PRASCO,,NO,G987,44.6424071,8.5528503,5.9723,006
AL,006140,PREDOSA,PREDOSA,,NO,H021,44.7527244,8.6592398,33.0071,006
AL,006141,QUARGNENTO,QUARGNENTO,,NO,H104,44.9448388,8.4877076,36.1646,006
AL,006142,QUATTORDIO,QUATTORDIO,,NO,H121,44.8992043,8.4059871,17.7334,006
AL,006143,RICALDONE,RICALDONE,,NO,H272,44.7320841,8.4696335,10.5150,006
AL,006144,RIVALTA BORMIDA,RIVALTA BORMIDA,,NO,H334,44.7113696,8.5502585,10.0518,006
AL,006145,RIVARONE,RIVARONE,,NO,H343,44.9776577,8.7156949,6.0734,006
AL,006146,ROCCAFORTE LIGURE,ROCCAFORTE LIGURE,,NO,H406,44.6777056,9.0277694,20.5892,006
AL,006147,ROCCA GRIMALDA,ROCCA GRIMALDA,,NO,H414,44.6710935,8.6472867,15.4613,006
AL,006148,ROCCHETTA LIGURE,ROCCHETTA LIGURE,,NO,H465,44.7065411,9.0500277,10.1543,006
AL,006149,ROSIGNANO MONFERRATO,ROSIGNANO MONFERRATO,,NO,H569,45.0798449,8.3990589,19.2796,006
AL,006150,SALA MONFERRATO,SALA MONFERRATO,,NO,H677,45.0753978,8.3581763,7.5754,006
AL,006151,SALE,SALE,,NO,H694,44.9847456,8.8089706,44.9150,006
AL,006152,SAN CRISTOFORO,SAN CRISTOFORO,,NO,H810,44.6924073,8.7499958,3.5707,006
AL,006153,SAN GIORGIO MONFERRATO,SAN GIORGIO MONFERRATO,,NO,H878,45.1077863,8.4148569,7.1153,006
AL,006154,SAN SALVATORE MONFERRATO,SAN SALVATORE MONFERRATO,,NO,I144,44.9948033,8.5666904,31.6916,006
AL,006155,SAN SEBASTIANO CURONE,SAN SEBASTIANO CURONE,,NO,I150,44.7856067,9.0652433,3.8925,006
AL,006156,SANT'AGATA FOSSILI,SANT'AGATA FOSSILI,,NO,I190,44.7859064,8.9189347,7.7063,006
AL,006157,SARDIGLIANO,SARDIGLIANO,,NO,I429,44.7542920,8.9076741,12.7430,006
AL,006158,SAREZZANO,SAREZZANO,,NO,I432,44.8675538,8.9153611,13.8531,006
AL,006159,SERRALUNGA DI CREA,SERRALUNGA DI CREA,,NO,I645,45.1007411,8.2818606,8.8425,006
AL,006160,SERRAVALLE SCRIVIA,SERRAVALLE SCRIVIA,,NO,I657,44.7194648,8.8589917,15.9473,006
AL,006161,SEZZADIO,SEZZADIO,,NO,I711,44.7855819,8.5727297,34.3196,006
AL,006162,SILVANO D'ORBA,SILVANO D'ORBA,,NO,I738,44.6855659,8.6710129,12.1680,006
AL,006163,SOLERO,SOLERO,,NO,I798,44.9197586,8.5077097,22.5538,006
AL,006164,SOLONGHELLO,SOLONGHELLO,,NO,I808,45.1309523,8.2818377,4.9533,006
AL,006165,SPIGNO MONFERRATO,SPIGNO MONFERRATO,,NO,I901,44.5430240,8.3353027,54.8539,006
AL,006166,SPINETO SCRIVIA,SPINETO SCRIVIA,,NO,I911,44.8376236,8.8723825,3.9541,006
AL,006167,STAZZANO,STAZZANO,,NO,I941,44.7272525,8.8673933,17.9146,006
AL,006168,STREVI,STREVI,,NO,I977,44.6986567,8.5224600,15.2889,006
AL,006169,TAGLIOLO MONFERRATO,TAGLIOLO MONFERRATO,,NO,L027,44.6390773,8.6682523,26.2113,006
AL,006170,TASSAROLO,TASSAROLO,,NO,L059,44.7265798,8.7695011,7.0350,006
AL,006171,TERRUGGIA,TERRUGGIA,,NO,L139,45.0830560,8.4421786,7.2660,006
AL,006172,TERZO,TERZO,,NO,L143,44.6695304,8.4210536,8.7959,006
AL,006173,TICINETO,TICINETO,,NO,L165,45.0974877,8.5555502,8.1813,006
AL,006174,TORTONA,TORTONA,,NO,L304,44.8947397,8.8601589,98.8665,006
AL,006175,TREVILLE,TREVILLE,,NO,L403,45.0971413,8.3597585,4.6032,006
AL,006176,TRISOBBIO,TRISOBBIO,,NO,L432,44.6622963,8.5862757,9.2193,006
AL,006177,VALENZA,VALENZA,,NO,L570,45.0144656,8.6462262,48.4945,006
AL,006178,VALMACCA,VALMACCA,,NO,L633,45.1004646,8.5823372,12.2936,006
AL,006179,VIGNALE MONFERRATO,VIGNALE MONFERRATO,,NO,L881,45.0109305,8.3965366,18.7257,006
AL,006180,VIGNOLE BORBERA,VIGNOLE BORBERA,,NO,L887,44.7082847,8.8905588,8.6455,006
AL,006181,VIGUZZOLO,VIGUZZOLO,,NO,L904,44.9049194,8.9200804,18.3072,006
AL,006182,VILLADEATI,VILLADEATI,,NO,L931,45.0724416,8.1696989,14.4926,006
AL,006183,VILLALVERNIA,VILLALVERNIA,,NO,L963,44.8176011,8.8566406,4.4416,006
AL,006184,VILLAMIROGLIO,VILLAMIROGLIO,,NO,L970,45.1344466,8.1697573,9.8686,006
AL,006185,VILLANOVA MONFERRATO,VILLANOVA MONFERRATO,,NO,L972,45.1817906,8.4784678,16.5563,006
AL,006186,VILLAROMAGNANO,VILLAROMAGNANO,,NO,M009,44.8510879,8.8871349,6.0672,006
AL,006187,VISONE,VISONE,,NO,M077,44.6620556,8.5032776,12.5616,006
AL,006188,VOLPEDO,VOLPEDO,,NO,M120,44.8888012,8.9833830,10.4833,006
AL,006189,VOLPEGLINO,VOLPEGLINO,,NO,M121,44.8930471,8.9589640,3.2458,006
AL,006190,VOLTAGGIO,VOLTAGGIO,,NO,M123,44.6201255,8.8426570,52.1828,006
AL,006191,CASSANO SPINOLA,CASSANO SPINOLA,,NO,M388,44.7706175,8.8696150,17.1590,006
AL,006192,ALLUVIONI PIOVERA,ALLUVIONI PIOVERA,,NO,M397,44.9677770,8.7536056,24.7844,006
AL,006193,LU E CUCCARO MONFERRATO,LU E CUCCARO MONFERRATO,,NO,M420,45.0023858,8.4837614,27.0951,006
AO,007001,ALLEIN,ALLEIN,,NO,A205,45.8130096,7.2724783,7.9640,007
AO,007002,ANTEY-SAINT-ANDRÉ,ANTEY-SAINT-ANDRÉ,,NO,A305,45.8049657,7.5932085,11.8126,007
AO,007003,AOSTA,AOSTA,,SI,A326,45.7375122,7.3201491,21.3922,007
AO,007004,ARNAD,ARNAD,,NO,A424,45.6449847,7.7212755,28.8405,007
AO,007005,ARVIER,ARVIER,,NO,A452,45.7035684,7.1693041,33.3596,007
AO,007006,AVISE,AVISE,,NO,A521,45.7087107,7.1413297,52.6166,007
AO,007007,AYAS,AYAS,,NO,A094,45.8140546,7.6881569,129.4208,007
AO,007008,AYMAVILLES,AYMAVILLES,,NO,A108,45.7013767,7.2405449,53.2435,007
AO,007009,BARD,BARD,,NO,A643,45.6079645,7.7466341,3.0315,007
AO,007010,BIONAZ,BIONAZ,,NO,A877,45.8740793,7.4230709,142.0904,007
AO,007011,BRISSOGNE,BRISSOGNE,,NO,B192,45.7271899,7.4045742,25.5436,007
AO,007012,BRUSSON,BRUSSON,,NO,B230,45.7586279,7.7328122,55.2569,007
AO,007013,CHALLAND-SAINT-ANSELME,CHALLAND-SAINT-ANSELME,,NO,C593,45.7164084,7.7365646,27.9864,007
AO,007014,CHALLAND-SAINT-VICTOR,CHALLAND-SAINT-VICTOR,,NO,C594,45.6897830,7.7064615,25.1589,007
AO,007015,CHAMBAVE,CHAMBAVE,,NO,C595,45.7443453,7.5499413,21.5416,007
AO,007016,CHAMOIS,CHAMOIS,,NO,B491,45.8383677,7.6202844,14.5283,007
AO,007017,CHAMPDEPRAZ,CHAMPDEPRAZ,,NO,C596,45.6857490,7.6577543,48.7924,007
AO,007018,CHAMPORCHER,CHAMPORCHER,,NO,B540,45.6236202,7.6207939,68.4323,007
AO,007019,CHARVENSOD,CHARVENSOD,,NO,C598,45.7204438,7.3254073,25.8619,007
AO,007020,CHÂTILLON,CHÂTILLON,,NO,C294,45.7495761,7.6132484,39.6811,007
AO,007021,COGNE,COGNE,,NO,C821,45.6081108,7.3558966,213.0366,007
AO,007022,COURMAYEUR,COURMAYEUR,,NO,D012,45.7930597,6.9721103,209.6058,007
AO,007023,DONNAS,DONNAS,,NO,D338,45.6034918,7.7674393,33.9756,007
AO,007024,DOUES,DOUES,,NO,D356,45.8192565,7.3066494,16.2542,007
AO,007025,EMARÈSE,EMARÈSE,,NO,D402,45.7247084,7.7004409,10.2330,007
AO,007026,ETROUBLES,ETROUBLES,,NO,D444,45.8197115,7.2329540,39.5692,007
AO,007027,FÉNIS,FÉNIS,,NO,D537,45.7361087,7.4942990,68.1198,007
AO,007028,FONTAINEMORE,FONTAINEMORE,,NO,D666,45.6490086,7.8609733,31.7086,007
AO,007029,GABY,GABY,,NO,D839,45.7128719,7.8823494,32.8795,007
AO,007030,GIGNOD,GIGNOD,,NO,E029,45.7782620,7.2961777,25.9833,007
AO,007031,GRESSAN,GRESSAN,,NO,E165,45.7216299,7.2894405,25.2939,007
AO,007032,GRESSONEY-LA-TRINITÉ,GRESSONEY-LA-TRINITÉ,,NO,E167,45.8272526,7.8230854,66.5155,007
AO,007033,GRESSONEY-SAINT-JEAN,GRESSONEY-SAINT-JEAN,,NO,E168,45.7770071,7.8275858,69.6469,007
AO,007034,HÔNE,HÔNE,,NO,E273,45.6118625,7.7357330,12.6384,007
AO,007035,INTROD,INTROD,,NO,E306,45.6914789,7.1872175,20.0381,007
AO,007036,ISSIME,ISSIME,,NO,E369,45.6854598,7.8542158,34.6742,007
AO,007037,ISSOGNE,ISSOGNE,,NO,E371,45.6539580,7.6844172,23.5840,007
AO,007038,JOVENÇAN,JOVENÇAN,,NO,E391,45.7139721,7.2749773,7.0120,007
AO,007039,LA MAGDELEINE,LA MAGDELEINE,,NO,A308,45.8108078,7.6190993,8.9366,007
AO,007040,LA SALLE,LA SALLE,,NO,E458,45.7468981,7.0725960,83.9427,007
AO,007041,LA THUILE,LA THUILE,,NO,E470,45.7168438,6.9490717,125.6666,007
AO,007042,LILLIANES,LILLIANES,,NO,E587,45.6327735,7.8450707,18.5455,007
AO,007043,MONTJOVET,MONTJOVET,,NO,F367,45.7042245,7.6741872,18.7597,007
AO,007044,MORGEX,MORGEX,,NO,F726,45.7569917,7.0360689,43.6277,007
AO,007045,NUS,NUS,,NO,F987,45.7392154,7.4669414,57.3588,007
AO,007046,OLLOMONT,OLLOMONT,,NO,G045,45.8491128,7.3109029,53.4824,007
AO,007047,OYACE,OYACE,,NO,G012,45.8507095,7.3825057,30.5598,007
AO,007048,PERLOZ,PERLOZ,,NO,G459,45.6131213,7.8086028,23.2661,007
AO,007049,POLLEIN,POLLEIN,,NO,G794,45.7280585,7.3571718,15.3265,007
AO,007050,PONTBOSET,PONTBOSET,,NO,G545,45.6064380,7.6876522,33.5584,007
AO,007051,PONTEY,PONTEY,,NO,G860,45.7379093,7.5913491,15.7533,007
AO,007052,PONT-SAINT-MARTIN,PONT-SAINT-MARTIN,,NO,G854,45.5998198,7.7977978,6.9217,007
AO,007053,PRÉ-SAINT-DIDIER,PRÉ-SAINT-DIDIER,,NO,H042,45.7637740,6.9863526,33.4019,007
AO,007054,QUART,QUART,,NO,H110,45.7406890,7.4156026,62.0249,007
AO,007055,RHÊMES-NOTRE-DAME,RHÊMES-NOTRE-DAME,,NO,H262,45.5697142,7.1185287,86.8333,007
AO,007056,RHÊMES-SAINT-GEORGES,RHÊMES-SAINT-GEORGES,,NO,H263,45.6552641,7.1552473,36.3385,007
AO,007057,ROISAN,ROISAN,,NO,H497,45.7844334,7.3105788,14.6410,007
AO,007058,SAINT-CHRISTOPHE,SAINT-CHRISTOPHE,,NO,H669,45.7483400,7.3578141,14.7362,007
AO,007059,SAINT-DENIS,SAINT-DENIS,,NO,H670,45.7521873,7.5571919,11.3871,007
AO,007060,SAINT-MARCEL,SAINT-MARCEL,,NO,H671,45.7324249,7.4482864,42.3775,007
AO,007061,SAINT-NICOLAS,SAINT-NICOLAS,,NO,H672,45.7166266,7.1678868,15.4576,007
AO,007062,SAINT-OYEN,SAINT-OYEN,,NO,H673,45.8246330,7.2124075,9.4206,007
AO,007063,SAINT-PIERRE,SAINT-PIERRE,,NO,H674,45.7104427,7.2262887,26.1772,007
AO,007064,SAINT-RHÉMY-EN-BOSSES,SAINT-RHÉMY-EN-BOSSES,,NO,H675,45.8230695,7.1820635,64.8770,007
AO,007065,SAINT-VINCENT,SAINT-VINCENT,,NO,H676,45.7502297,7.6475021,20.5722,007
AO,007066,SARRE,SARRE,,NO,I442,45.7179534,7.2576449,28.2904,007
AO,007067,TORGNON,TORGNON,,NO,L217,45.8014819,7.5712055,42.4583,007
AO,007068,VALGRISENCHE,VALGRISENCHE,,NO,L582,45.6303453,7.0647555,113.4757,007
AO,007069,VALPELLINE,VALPELLINE,,NO,L643,45.8264336,7.3285534,31.4468,007
AO,007070,VALSAVARENCHE,VALSAVARENCHE,,NO,L647,45.5919986,7.2083118,138.2072,007
AO,007071,VALTOURNENCHE,VALTOURNENCHE,,NO,L654,45.8770960,7.6227088,116.1501,007
AO,007072,VERRAYES,VERRAYES,,NO,L783,45.7614537,7.5322539,22.3547,007
AO,007073,VERRÈS,VERRÈS,,NO,C282,45.6687354,7.6899406,8.3870,007
AO,007074,VILLENEUVE,VILLENEUVE,,NO,L981,45.7027608,7.2077395,8.7979,007
IM,008001,AIROLE,AIROLE,,NO,A111,43.8719140,7.5537342,14.6268,008
IM,008002,APRICALE,APRICALE,,NO,A338,43.8804478,7.6604748,19.9364,008
IM,008003,AQUILA D'ARROSCIA,AQUILA D'ARROSCIA,,NO,A344,44.0836723,8.0053808,10.0601,008
IM,008004,ARMO,ARMO,,NO,A418,44.0873600,7.9140091,10.0925,008
IM,008005,AURIGO,AURIGO,,NO,A499,43.9829970,7.9225641,9.1429,008
IM,008006,BADALUCCO,BADALUCCO,,NO,A536,43.9156189,7.8470478,16.1378,008
IM,008007,BAJARDO,BAJARDO,,NO,A581,43.9034868,7.7182324,24.3196,008
IM,008008,BORDIGHERA,BORDIGHERA,,NO,A984,43.7797422,7.6718889,10.6993,008
IM,008009,BORGHETTO D'ARROSCIA,BORGHETTO D'ARROSCIA,,NO,A993,44.0574515,7.9818271,25.9386,008
IM,008010,BORGOMARO,BORGOMARO,,NO,B020,43.9755854,7.9448964,23.4357,008
IM,008011,CAMPOROSSO,CAMPOROSSO,,NO,B559,43.8151628,7.6283324,17.9485,008
IM,008012,CARAVONICA,CARAVONICA,,NO,B734,43.9923250,7.9588782,4.4708,008
IM,008014,CASTELLARO,CASTELLARO,,NO,C143,43.8646810,7.8683164,7.8606,008
IM,008015,CASTEL VITTORIO,CASTEL VITTORIO,,NO,C110,43.9287266,7.6731857,25.9282,008
IM,008016,CERIANA,CERIANA,,NO,C511,43.8809296,7.7729467,31.7925,008
IM,008017,CERVO,CERVO,,NO,C559,43.9253209,8.1143923,3.5948,008
IM,008018,CESIO,CESIO,,NO,C578,44.0076981,7.9749721,8.8570,008
IM,008019,CHIUSANICO,CHIUSANICO,,NO,C657,43.9732241,7.9916404,13.5069,008
IM,008020,CHIUSAVECCHIA,CHIUSAVECCHIA,,NO,C660,43.9678747,7.9833273,4.0917,008
IM,008021,CIPRESSA,CIPRESSA,,NO,C718,43.8529346,7.9340957,9.3931,008
IM,008022,CIVEZZA,CIVEZZA,,NO,C755,43.8793189,7.9512847,3.8800,008
IM,008023,COSIO D'ARROSCIA,COSIO D'ARROSCIA,,NO,D087,44.0758019,7.8311678,40.5547,008
IM,008024,COSTARAINERA,COSTARAINERA,,NO,D114,43.8545168,7.9412404,2.5196,008
IM,008025,DIANO ARENTINO,DIANO ARENTINO,,NO,D293,43.9479812,8.0422747,8.3343,008
IM,008026,DIANO CASTELLO,DIANO CASTELLO,,NO,D296,43.9241588,8.0666595,6.1124,008
IM,008027,DIANO MARINA,DIANO MARINA,,NO,D297,43.9100167,8.0817928,6.6615,008
IM,008028,DIANO SAN PIETRO,DIANO SAN PIETRO,,NO,D298,43.9311400,8.0687894,11.9131,008
IM,008029,DOLCEACQUA,DOLCEACQUA,,NO,D318,43.8481004,7.6234657,20.2846,008
IM,008030,DOLCEDO,DOLCEDO,,NO,D319,43.9069224,7.9517765,19.7953,008
IM,008031,IMPERIA,IMPERIA,,SI,E290,43.8856884,8.0278506,45.4686,008
IM,008032,ISOLABONA,ISOLABONA,,NO,E346,43.8799725,7.6388632,12.3465,008
IM,008033,LUCINASCO,LUCINASCO,,NO,E719,43.9677587,7.9627524,7.8969,008
IM,008034,MENDATICA,MENDATICA,,NO,F123,44.0763582,7.8055599,30.6911,008
IM,008035,MOLINI DI TRIORA,MOLINI DI TRIORA,,NO,F290,43.9901246,7.7743299,58.0473,008
IM,008037,MONTEGROSSO PIAN LATTE,MONTEGROSSO PIAN LATTE,,NO,F528,44.0665945,7.8178446,10.0261,008
IM,008038,OLIVETTA SAN MICHELE,OLIVETTA SAN MICHELE,,NO,G041,43.8797903,7.5155031,13.8375,008
IM,008039,OSPEDALETTI,OSPEDALETTI,,NO,G164,43.8007230,7.7177018,5.4996,008
IM,008040,PERINALDO,PERINALDO,,NO,G454,43.8661809,7.6742398,20.2994,008
IM,008041,PIETRABRUNA,PIETRABRUNA,,NO,G607,43.8899565,7.9034762,10.2246,008
IM,008042,PIEVE DI TECO,PIEVE DI TECO,,NO,G632,44.0469822,7.9152154,40.5053,008
IM,008043,PIGNA,PIGNA,,NO,G660,43.9329923,7.6633807,53.2305,008
IM,008044,POMPEIANA,POMPEIANA,,NO,G814,43.8527632,7.8885285,5.3803,008
IM,008045,PONTEDASSIO,PONTEDASSIO,,NO,G840,43.9404276,8.0126944,13.3126,008
IM,008046,PORNASSIO,PORNASSIO,,NO,G890,44.0702531,7.8709539,27.2113,008
IM,008047,PRELÀ,PRELÀ,,NO,H027,43.9262062,7.9369917,14.8027,008
IM,008048,RANZO,RANZO,,NO,H180,44.0595458,8.0144682,10.8563,008
IM,008049,REZZO,REZZO,,NO,H257,44.0202976,7.8721575,37.3675,008
IM,008050,RIVA LIGURE,RIVA LIGURE,,NO,H328,43.8375052,7.8817125,2.0729,008
IM,008051,ROCCHETTA NERVINA,ROCCHETTA NERVINA,,NO,H460,43.8901585,7.6002952,15.2848,008
IM,008052,SAN BARTOLOMEO AL MARE,SAN BARTOLOMEO AL MARE,,NO,H763,43.9284954,8.1021686,10.8800,008
IM,008053,SAN BIAGIO DELLA CIMA,SAN BIAGIO DELLA CIMA,,NO,H780,43.8187688,7.6498503,4.3071,008
IM,008054,SAN LORENZO AL MARE,SAN LORENZO AL MARE,,NO,H957,43.8535908,7.9638818,1.3475,008
IM,008055,SANREMO,SANREMO,,NO,I138,43.8209810,7.7846330,56.0067,008
IM,008056,SANTO STEFANO AL MARE,SANTO STEFANO AL MARE,,NO,I365,43.8372295,7.8990784,2.7084,008
IM,008057,SEBORGA,SEBORGA,,NO,I556,43.8258641,7.6941607,4.8705,008
IM,008058,SOLDANO,SOLDANO,,NO,I796,43.8267039,7.6540800,3.4660,008
IM,008059,TAGGIA,TAGGIA,,NO,L024,43.8436087,7.8505232,31.3633,008
IM,008060,TERZORIO,TERZORIO,,NO,L146,43.8528218,7.8982479,1.9254,008
IM,008061,TRIORA,TRIORA,,NO,L430,43.9937968,7.7621127,67.6059,008
IM,008062,VALLEBONA,VALLEBONA,,NO,L596,43.8132615,7.6668365,5.8807,008
IM,008063,VALLECROSIA,VALLECROSIA,,NO,L599,43.7931629,7.6437876,3.7219,008
IM,008064,VASIA,VASIA,,NO,L693,43.9330058,7.9541079,11.1512,008
IM,008065,VENTIMIGLIA,VENTIMIGLIA,,NO,L741,43.7900180,7.6086353,53.8308,008
IM,008066,VESSALICO,VESSALICO,,NO,L809,44.0462117,7.9622468,10.4645,008
IM,008067,VILLA FARALDI,VILLA FARALDI,,NO,L943,43.9670748,8.0914672,9.5156,008
IM,008068,MONTALTO CARPASIO,MONTALTO CARPASIO,,NO,M387,43.9462046,7.8503675,29.9658,008
SV,009001,ALASSIO,ALASSIO,,NO,A122,44.0080222,8.1729613,17.2553,009
SV,009002,ALBENGA,ALBENGA,,NO,A145,44.0490915,8.2129474,36.5893,009
SV,009003,ALBISSOLA MARINA,ALBISSOLA MARINA,,NO,A165,44.3272366,8.5031814,3.2457,009
SV,009004,ALBISOLA SUPERIORE,ALBISOLA SUPERIORE,,NO,A166,44.3396755,8.5103396,28.6771,009
SV,009005,ALTARE,ALTARE,,NO,A226,44.3347713,8.3439315,11.2964,009
SV,009006,ANDORA,ANDORA,,NO,A278,43.9582305,8.1400348,31.8219,009
SV,009007,ARNASCO,ARNASCO,,NO,A422,44.0779834,8.1069681,6.0930,009
SV,009008,BALESTRINO,BALESTRINO,,NO,A593,44.1248827,8.1745869,11.2733,009
SV,009009,BARDINETO,BARDINETO,,NO,A647,44.1920828,8.1293889,29.7933,009
SV,009010,BERGEGGI,BERGEGGI,,NO,A796,44.2490483,8.4441010,3.6898,009
SV,009011,BOISSANO,BOISSANO,,NO,A931,44.1342280,8.2212316,8.3521,009
SV,009012,BORGHETTO SANTO SPIRITO,BORGHETTO SANTO SPIRITO,,NO,A999,44.1153694,8.2419882,5.4033,009
SV,009013,BORGIO VEREZZI,BORGIO VEREZZI,,NO,B005,44.1598605,8.3045611,2.7664,009
SV,009014,BORMIDA,BORMIDA,,NO,B048,44.2786447,8.2326114,22.4709,009
SV,009015,CAIRO MONTENOTTE,CAIRO MONTENOTTE,,NO,B369,44.3997074,8.2741727,100.4025,009
SV,009016,CALICE LIGURE,CALICE LIGURE,,NO,B409,44.2049045,8.2942695,20.6033,009
SV,009017,CALIZZANO,CALIZZANO,,NO,B416,44.2351830,8.1153716,62.7437,009
SV,009018,CARCARE,CARCARE,,NO,B748,44.3579556,8.2908282,10.4004,009
SV,009019,CASANOVA LERRONE,CASANOVA LERRONE,,NO,B927,44.0315782,8.0482772,24.2297,009
SV,009020,CASTELBIANCO,CASTELBIANCO,,NO,C063,44.1132008,8.0747994,14.7043,009
SV,009021,CASTELVECCHIO DI ROCCA BARBENA,CASTELVECCHIO DI ROCCA BARBENA,,NO,C276,44.1303687,8.1155061,16.1434,009
SV,009022,CELLE LIGURE,CELLE LIGURE,,NO,C443,44.3420502,8.5452236,9.5613,009
SV,009023,CENGIO,CENGIO,,NO,C463,44.3875528,8.2084098,18.9616,009
SV,009024,CERIALE,CERIALE,,NO,C510,44.0963417,8.2320661,11.1526,009
SV,009025,CISANO SUL NEVA,CISANO SUL NEVA,,NO,C729,44.0872783,8.1449606,12.2726,009
SV,009026,COSSERIA,COSSERIA,,NO,D095,44.3685020,8.2344564,12.4066,009
SV,009027,DEGO,DEGO,,NO,D264,44.4495854,8.3103820,66.8144,009
SV,009028,ERLI,ERLI,,NO,D424,44.1365482,8.1053312,16.7297,009
SV,009029,FINALE LIGURE,FINALE LIGURE,,NO,D600,44.1690091,8.3436046,35.5308,009
SV,009030,GARLENDA,GARLENDA,,NO,D927,44.0335846,8.0967961,8.0552,009
SV,009031,GIUSTENICE,GIUSTENICE,,NO,E064,44.1723119,8.2462160,17.2237,009
SV,009032,GIUSVALLA,GIUSVALLA,,NO,E066,44.4494693,8.3937269,19.7021,009
SV,009033,LAIGUEGLIA,LAIGUEGLIA,,NO,E414,43.9746022,8.1581444,2.7741,009
SV,009034,LOANO,LOANO,,NO,E632,44.1291586,8.2597773,13.5303,009
SV,009035,MAGLIOLO,MAGLIOLO,,NO,E816,44.1916230,8.2501862,19.5718,009
SV,009036,MALLARE,MALLARE,,NO,E860,44.2914539,8.2975768,31.7301,009
SV,009037,MASSIMINO,MASSIMINO,,NO,F046,44.2993814,8.0711602,7.8506,009
SV,009038,MILLESIMO,MILLESIMO,,NO,F213,44.3644121,8.2058184,15.9576,009
SV,009039,MIOGLIA,MIOGLIA,,NO,F226,44.4898520,8.4112729,19.2984,009
SV,009040,MURIALDO,MURIALDO,,NO,F813,44.3161602,8.1613570,39.2211,009
SV,009041,NASINO,NASINO,,NO,F847,44.1150991,8.0278418,22.1768,009
SV,009042,NOLI,NOLI,,NO,F926,44.2056498,8.4161844,9.6682,009
SV,009043,ONZO,ONZO,,NO,G076,44.0695763,8.0514115,8.2263,009
SV,009044,ORCO FEGLINO,ORCO FEGLINO,,NO,D522,44.2195535,8.3251620,17.3130,009
SV,009045,ORTOVERO,ORTOVERO,,NO,G144,44.0538113,8.0910885,9.6586,009
SV,009046,OSIGLIA,OSIGLIA,,NO,G155,44.2807790,8.2006191,28.1736,009
SV,009047,PALLARE,PALLARE,,NO,G281,44.3276203,8.2749643,21.3321,009
SV,009048,PIANA CRIXIA,PIANA CRIXIA,,NO,G542,44.4852627,8.3075121,30.4449,009
SV,009049,PIETRA LIGURE,PIETRA LIGURE,,NO,G605,44.1488471,8.2828272,9.8442,009
SV,009050,PLODIO,PLODIO,,NO,G741,44.3565203,8.2435229,8.6454,009
SV,009051,PONTINVREA,PONTINVREA,,NO,G866,44.4448870,8.4345702,24.9456,009
SV,009052,QUILIANO,QUILIANO,,NO,H126,44.2934099,8.4113798,49.9355,009
SV,009053,RIALTO,RIALTO,,NO,H266,44.2195947,8.2747214,19.5972,009
SV,009054,ROCCAVIGNALE,ROCCAVIGNALE,,NO,H452,44.3618745,8.1920123,17.7066,009
SV,009055,SASSELLO,SASSELLO,,NO,I453,44.4790272,8.4899453,100.6552,009
SV,009056,SAVONA,SAVONA,,SI,I480,44.3074927,8.4811088,65.3740,009
SV,009057,SPOTORNO,SPOTORNO,,NO,I926,44.2271587,8.4194628,8.0195,009
SV,009058,STELLA,STELLA,,NO,I946,44.3968814,8.4930781,43.6807,009
SV,009059,STELLANELLO,STELLANELLO,,NO,I947,44.0003014,8.0593307,17.7756,009
SV,009060,TESTICO,TESTICO,,NO,L152,44.0053528,8.0309741,10.2868,009
SV,009061,TOIRANO,TOIRANO,,NO,L190,44.1269032,8.2071936,18.9652,009
SV,009062,TOVO SAN GIACOMO,TOVO SAN GIACOMO,,NO,L315,44.1766880,8.2685381,9.4467,009
SV,009063,URBE,URBE,,NO,L499,44.4877447,8.5923872,31.1688,009
SV,009064,VADO LIGURE,VADO LIGURE,,NO,L528,44.2693257,8.4362807,23.8939,009
SV,009065,VARAZZE,VARAZZE,,NO,L675,44.3599878,8.5763981,48.0095,009
SV,009066,VENDONE,VENDONE,,NO,L730,44.0739960,8.0742597,9.9150,009
SV,009067,VEZZI PORTIO,VEZZI PORTIO,,NO,L823,44.2289334,8.3619475,8.7619,009
SV,009068,VILLANOVA D'ALBENGA,VILLANOVA D'ALBENGA,,NO,L975,44.0458850,8.1430809,15.8677,009
SV,009069,ZUCCARELLO,ZUCCARELLO,,NO,M197,44.1113325,8.1156583,10.8070,009
GE,010001,ARENZANO,ARENZANO,,NO,A388,44.4017827,8.6822606,24.3050,210
GE,010002,AVEGNO,AVEGNO,,NO,A506,44.3822961,9.1587177,10.9316,210
GE,010003,BARGAGLI,BARGAGLI,,NO,A658,44.4446331,9.0883387,16.2765,210
GE,010004,BOGLIASCO,BOGLIASCO,,NO,A922,44.3782107,9.0697813,4.4232,210
GE,010005,BORZONASCA,BORZONASCA,,NO,B067,44.4221928,9.3867974,80.5133,210
GE,010006,BUSALLA,BUSALLA,,NO,B282,44.5707931,8.9449805,17.1058,210
GE,010007,CAMOGLI,CAMOGLI,,NO,B490,44.3467936,9.1571384,10.0076,210
GE,010008,CAMPO LIGURE,CAMPO LIGURE,,NO,B538,44.5383796,8.6976292,23.7401,210
GE,010009,CAMPOMORONE,CAMPOMORONE,,NO,B551,44.5066865,8.8926758,25.9074,210
GE,010010,CARASCO,CARASCO,,NO,B726,44.3513034,9.3440404,8.4612,210
GE,010011,CASARZA LIGURE,CASARZA LIGURE,,NO,B939,44.2746082,9.4534569,27.8218,210
GE,010012,CASELLA,CASELLA,,NO,B956,44.5349873,8.9991988,8.0657,210
GE,010013,CASTIGLIONE CHIAVARESE,CASTIGLIONE CHIAVARESE,,NO,C302,44.2746986,9.5135480,29.7496,210
GE,010014,CERANESI,CERANESI,,NO,C481,44.5039261,8.8945971,30.6931,210
GE,010015,CHIAVARI,CHIAVARI,,NO,C621,44.3166989,9.3240170,12.2802,210
GE,010016,CICAGNA,CICAGNA,,NO,C673,44.4085895,9.2359489,11.2878,210
GE,010017,COGOLETO,COGOLETO,,NO,C823,44.3894582,8.6463299,20.7230,210
GE,010018,COGORNO,COGORNO,,NO,C826,44.3286344,9.3521727,9.0873,210
GE,010019,COREGLIA LIGURE,COREGLIA LIGURE,,NO,C995,44.3920341,9.2669873,8.0024,210
GE,010020,CROCEFIESCHI,CROCEFIESCHI,,NO,D175,44.5848167,9.0228175,11.7248,210
GE,010021,DAVAGNA,DAVAGNA,,NO,D255,44.4647349,9.0866897,20.5251,210
GE,010022,FASCIA,FASCIA,,NO,D509,44.5644819,9.2362667,11.2541,210
GE,010023,FAVALE DI MALVARO,FAVALE DI MALVARO,,NO,D512,44.4520292,9.2580251,16.6164,210
GE,010024,FONTANIGORDA,FONTANIGORDA,,NO,D677,44.5465479,9.3049480,16.1628,210
GE,010025,GENOVA,GENOVA,,SI,D969,44.4114827,8.9326992,240.6542,210
GE,010026,GORRETO,GORRETO,,NO,E109,44.6049614,9.2920949,18.8758,210
GE,010027,ISOLA DEL CANTONE,ISOLA DEL CANTONE,,NO,E341,44.6458385,8.9559704,47.9667,210
GE,010028,LAVAGNA,LAVAGNA,,NO,E488,44.3071457,9.3440367,13.8679,210
GE,010029,LEIVI,LEIVI,,NO,E519,44.3455120,9.3182163,9.7098,210
GE,010030,LORSICA,LORSICA,,NO,E695,44.4323345,9.2743344,17.7183,210
GE,010031,LUMARZO,LUMARZO,,NO,E737,44.4435587,9.1373208,25.5078,210
GE,010032,MASONE,MASONE,,NO,F020,44.5036272,8.7116929,29.4412,210
GE,010033,MELE,MELE,,NO,F098,44.4453930,8.7480287,16.9336,210
GE,010034,MEZZANEGO,MEZZANEGO,,NO,F173,44.3836866,9.3769056,28.6496,210
GE,010035,MIGNANEGO,MIGNANEGO,,NO,F202,44.5276349,8.9146833,16.2723,210
GE,010036,MOCONESI,MOCONESI,,NO,F256,44.4195185,9.2123474,16.3085,210
GE,010037,MONEGLIA,MONEGLIA,,NO,F354,44.2385357,9.4901268,15.6111,210
GE,010038,MONTEBRUNO,MONTEBRUNO,,NO,F445,44.5270846,9.2497904,17.6787,210
GE,010039,MONTOGGIO,MONTOGGIO,,NO,F682,44.5155717,9.0441989,47.7246,210
GE,010040,NE,NE,,NO,F858,44.3443558,9.3984203,63.5213,210
GE,010041,NEIRONE,NEIRONE,,NO,F862,44.4542452,9.1909010,30.2561,210
GE,010042,ORERO,ORERO,,NO,G093,44.4072238,9.2746015,15.9885,210
GE,010043,PIEVE LIGURE,PIEVE LIGURE,,NO,G646,44.3746594,9.0868903,3.5565,210
GE,010044,PORTOFINO,PORTOFINO,,NO,G913,44.3040798,9.2072288,2.5310,210
GE,010045,PROPATA,PROPATA,,NO,H073,44.5647089,9.1848828,16.9310,210
GE,010046,RAPALLO,RAPALLO,,NO,H183,44.3501632,9.2317468,33.6304,210
GE,010047,RECCO,RECCO,,NO,H212,44.3621819,9.1435490,9.7864,210
GE,010048,REZZOAGLIO,REZZOAGLIO,,NO,H258,44.5256979,9.3866581,104.7191,210
GE,010049,RONCO SCRIVIA,RONCO SCRIVIA,,NO,H536,44.6081958,8.9549880,30.1114,210
GE,010050,RONDANINA,RONDANINA,,NO,H546,44.5623489,9.2176090,12.8079,210
GE,010051,ROSSIGLIONE,ROSSIGLIONE,,NO,H581,44.5621053,8.6705351,47.5928,210
GE,010052,ROVEGNO,ROVEGNO,,NO,H599,44.5771060,9.2786730,44.0858,210
GE,010053,SAN COLOMBANO CERTENOLI,SAN COLOMBANO CERTENOLI,,NO,H802,44.3717209,9.3131235,41.5747,210
GE,010054,SANTA MARGHERITA LIGURE,SANTA MARGHERITA LIGURE,,NO,I225,44.3348582,9.2099246,10.0549,210
GE,010055,SANT'OLCESE,SANT'OLCESE,,NO,I346,44.4836564,8.9676797,21.9016,210
GE,010056,SANTO STEFANO D'AVETO,SANTO STEFANO D'AVETO,,NO,I368,44.5478205,9.4509266,54.7734,210
GE,010057,SAVIGNONE,SAVIGNONE,,NO,I475,44.5637275,8.9879556,21.7000,210
GE,010058,SERRA RICCÒ,SERRA RICCÒ,,NO,I640,44.5078406,8.9360450,26.2065,210
GE,010059,SESTRI LEVANTE,SESTRI LEVANTE,,NO,I693,44.2698880,9.3931623,33.6243,210
GE,010060,SORI,SORI,,NO,I852,44.3727770,9.1043651,13.0661,210
GE,010061,TIGLIETO,TIGLIETO,,NO,L167,44.5253484,8.6204455,24.5370,210
GE,010062,TORRIGLIA,TORRIGLIA,,NO,L298,44.5190106,9.1577778,60.0146,210
GE,010063,TRIBOGNA,TRIBOGNA,,NO,L416,44.4162641,9.1955997,7.0783,210
GE,010064,USCIO,USCIO,,NO,L507,44.4131909,9.1632877,9.6332,210
GE,010065,VALBREVENNA,VALBREVENNA,,NO,L546,44.5565213,9.0650260,34.6707,210
GE,010066,VOBBIA,VOBBIA,,NO,M105,44.5997590,9.0398234,33.4256,210
GE,010067,ZOAGLI,ZOAGLI,,NO,M182,44.3370226,9.2672431,7.7878,210
SP,011001,AMEGLIA,AMEGLIA,,NO,A261,44.0657315,9.9572684,14.1935,011
SP,011002,ARCOLA,ARCOLA,,NO,A373,44.1145998,9.9058502,16.5379,011
SP,011003,BEVERINO,BEVERINO,,NO,A836,44.1940556,9.7692788,34.9449,011
SP,011004,BOLANO,BOLANO,,NO,A932,44.1888528,9.8952884,14.5663,011
SP,011005,BONASSOLA,BONASSOLA,,NO,A961,44.1833461,9.5841020,9.1896,011
SP,011006,BORGHETTO DI VARA,BORGHETTO DI VARA,,NO,A992,44.2235064,9.7216093,27.3369,011
SP,011007,BRUGNATO,BRUGNATO,,NO,B214,44.2368525,9.7250221,11.9013,011
SP,011008,CALICE AL CORNOVIGLIO,CALICE AL CORNOVIGLIO,,NO,B410,44.2424653,9.8358309,33.7544,011
SP,011009,CARRO,CARRO,,NO,B838,44.2726995,9.6082586,31.7917,011
SP,011010,CARRODANO,CARRODANO,,NO,B839,44.2420650,9.6561590,21.8631,011
SP,011011,CASTELNUOVO MAGRA,CASTELNUOVO MAGRA,,NO,C240,44.0984517,10.0182022,15.0171,011
SP,011012,DEIVA MARINA,DEIVA MARINA,,NO,D265,44.2188503,9.5205607,14.0857,011
SP,011013,FOLLO,FOLLO,,NO,D655,44.1626933,9.8621476,23.2704,011
SP,011014,FRAMURA,FRAMURA,,NO,D758,44.2089052,9.5543579,19.2600,011
SP,011015,LA SPEZIA,LA SPEZIA,,SI,E463,44.1070350,9.8281895,51.5856,011
SP,011016,LERICI,LERICI,,NO,E542,44.0760175,9.9109827,16.0126,011
SP,011017,LEVANTO,LEVANTO,,NO,E560,44.1699612,9.6124648,36.8144,011
SP,011018,MAISSANA,MAISSANA,,NO,E842,44.3366603,9.5350179,45.4275,011
SP,011019,MONTEROSSO AL MARE,MONTEROSSO AL MARE,,NO,F609,44.1462812,9.6561365,10.9434,011
SP,011020,LUNI,LUNI,,NO,G143,44.0849556,10.0420289,13.8558,011
SP,011021,PIGNONE,PIGNONE,,NO,G664,44.1791457,9.7240459,17.7462,011
SP,011022,PORTOVENERE,PORTOVENERE,,NO,G925,44.0557766,9.8370049,7.6576,011
SP,011023,RICCÒ DEL GOLFO DI SPEZIA,RICCÒ DEL GOLFO DI SPEZIA,,NO,H275,44.1555442,9.7634234,37.7634,011
SP,011024,RIOMAGGIORE,RIOMAGGIORE,,NO,H304,44.0997167,9.7381498,10.2920,011
